[
    {"id":"序号","parentid":"父级序号","name":"全称","shortname":"简称","mergername":"聚合全称","leveltype":"层级","citycode":"区号","zipcode":"邮编","lng":"经度","lat":"纬度","pinyin":"全拼","pinyin_short":"简拼","pinyin_first":"首字母"},
    {"id":100000,"parentid":0,"name":"中国","shortname":"中国","mergername":"中国","leveltype":0,"citycode":"","zipcode":"","lng":116.3683244,"lat":39.915085,"pinyin":"China","pinyin_short":"CN","pinyin_first":"C"},
    {"id":110000,"parentid":100000,"name":"北京","shortname":"北京","mergername":"中国,北京","leveltype":1,"citycode":"","zipcode":"","lng":116.405285,"lat":39.904989,"pinyin":"Beijing","pinyin_short":"BJ","pinyin_first":"B"},
    {"id":110100,"parentid":110000,"name":"北京市","shortname":"北京","mergername":"中国,北京,北京市","leveltype":2,"citycode":"010","zipcode":100000,"lng":116.405285,"lat":39.904989,"pinyin":"Beijing","pinyin_short":"BJ","pinyin_first":"B"},
    {"id":110101,"parentid":110100,"name":"东城区","shortname":"东城","mergername":"中国,北京,北京市,东城区","leveltype":3,"citycode":"010","zipcode":100010,"lng":116.41005,"lat":39.93157,"pinyin":"Dongcheng","pinyin_short":"DC","pinyin_first":"D"},
    {"id":110102,"parentid":110100,"name":"西城区","shortname":"西城","mergername":"中国,北京,北京市,西城区","leveltype":3,"citycode":"010","zipcode":100032,"lng":116.36003,"lat":39.9305,"pinyin":"Xicheng","pinyin_short":"XC","pinyin_first":"X"},
    {"id":110105,"parentid":110100,"name":"朝阳区","shortname":"朝阳","mergername":"中国,北京,北京市,朝阳区","leveltype":3,"citycode":"010","zipcode":100020,"lng":116.48548,"lat":39.9484,"pinyin":"Chaoyang","pinyin_short":"CY","pinyin_first":"C"},
    {"id":110106,"parentid":110100,"name":"丰台区","shortname":"丰台","mergername":"中国,北京,北京市,丰台区","leveltype":3,"citycode":"010","zipcode":100071,"lng":116.28625,"lat":39.8585,"pinyin":"Fengtai","pinyin_short":"FT","pinyin_first":"F"},
    {"id":110107,"parentid":110100,"name":"石景山区","shortname":"石景山","mergername":"中国,北京,北京市,石景山区","leveltype":3,"citycode":"010","zipcode":100043,"lng":116.2229,"lat":39.90564,"pinyin":"Shijingshan","pinyin_short":"SJS","pinyin_first":"S"},
    {"id":110108,"parentid":110100,"name":"海淀区","shortname":"海淀","mergername":"中国,北京,北京市,海淀区","leveltype":3,"citycode":"010","zipcode":100089,"lng":116.29812,"lat":39.95931,"pinyin":"Haidian","pinyin_short":"HD","pinyin_first":"H"},
    {"id":110109,"parentid":110100,"name":"门头沟区","shortname":"门头沟","mergername":"中国,北京,北京市,门头沟区","leveltype":3,"citycode":"010","zipcode":102300,"lng":116.10137,"lat":39.94043,"pinyin":"Mentougou","pinyin_short":"MTG","pinyin_first":"M"},
    {"id":110111,"parentid":110100,"name":"房山区","shortname":"房山","mergername":"中国,北京,北京市,房山区","leveltype":3,"citycode":"010","zipcode":102488,"lng":116.14257,"lat":39.74786,"pinyin":"Fangshan","pinyin_short":"FS","pinyin_first":"F"},
    {"id":110112,"parentid":110100,"name":"通州区","shortname":"通州","mergername":"中国,北京,北京市,通州区","leveltype":3,"citycode":"010","zipcode":101149,"lng":116.65716,"lat":39.90966,"pinyin":"Tongzhou","pinyin_short":"TZ","pinyin_first":"T"},
    {"id":110113,"parentid":110100,"name":"顺义区","shortname":"顺义","mergername":"中国,北京,北京市,顺义区","leveltype":3,"citycode":"010","zipcode":101300,"lng":116.65417,"lat":40.1302,"pinyin":"Shunyi","pinyin_short":"SY","pinyin_first":"S"},
    {"id":110114,"parentid":110100,"name":"昌平区","shortname":"昌平","mergername":"中国,北京,北京市,昌平区","leveltype":3,"citycode":"010","zipcode":102200,"lng":116.2312,"lat":40.22072,"pinyin":"Changping","pinyin_short":"CP","pinyin_first":"C"},
    {"id":110115,"parentid":110100,"name":"大兴区","shortname":"大兴","mergername":"中国,北京,北京市,大兴区","leveltype":3,"citycode":"010","zipcode":102600,"lng":116.34149,"lat":39.72668,"pinyin":"Daxing","pinyin_short":"DX","pinyin_first":"D"},
    {"id":110116,"parentid":110100,"name":"怀柔区","shortname":"怀柔","mergername":"中国,北京,北京市,怀柔区","leveltype":3,"citycode":"010","zipcode":101400,"lng":116.63168,"lat":40.31602,"pinyin":"Huairou","pinyin_short":"HR","pinyin_first":"H"},
    {"id":110117,"parentid":110100,"name":"平谷区","shortname":"平谷","mergername":"中国,北京,北京市,平谷区","leveltype":3,"citycode":"010","zipcode":101200,"lng":117.12133,"lat":40.14056,"pinyin":"Pinggu","pinyin_short":"PG","pinyin_first":"P"},
    {"id":110228,"parentid":110100,"name":"密云县","shortname":"密云","mergername":"中国,北京,北京市,密云县","leveltype":3,"citycode":"010","zipcode":101500,"lng":116.84295,"lat":40.37618,"pinyin":"Miyun","pinyin_short":"MY","pinyin_first":"M"},
    {"id":110229,"parentid":110100,"name":"延庆县","shortname":"延庆","mergername":"中国,北京,北京市,延庆县","leveltype":3,"citycode":"010","zipcode":102100,"lng":115.97494,"lat":40.45672,"pinyin":"Yanqing","pinyin_short":"YQ","pinyin_first":"Y"},
    {"id":120000,"parentid":100000,"name":"天津","shortname":"天津","mergername":"中国,天津","leveltype":1,"citycode":"","zipcode":"","lng":117.190182,"lat":39.125596,"pinyin":"Tianjin","pinyin_short":"TJ","pinyin_first":"T"},
    {"id":120100,"parentid":120000,"name":"天津市","shortname":"天津","mergername":"中国,天津,天津市","leveltype":2,"citycode":"022","zipcode":300000,"lng":117.190182,"lat":39.125596,"pinyin":"Tianjin","pinyin_short":"TJ","pinyin_first":"T"},
    {"id":120101,"parentid":120100,"name":"和平区","shortname":"和平","mergername":"中国,天津,天津市,和平区","leveltype":3,"citycode":"022","zipcode":300041,"lng":117.21456,"lat":39.11718,"pinyin":"Heping","pinyin_short":"HP","pinyin_first":"H"},
    {"id":120102,"parentid":120100,"name":"河东区","shortname":"河东","mergername":"中国,天津,天津市,河东区","leveltype":3,"citycode":"022","zipcode":300171,"lng":117.22562,"lat":39.12318,"pinyin":"Hedong","pinyin_short":"HD","pinyin_first":"H"},
    {"id":120103,"parentid":120100,"name":"河西区","shortname":"河西","mergername":"中国,天津,天津市,河西区","leveltype":3,"citycode":"022","zipcode":300202,"lng":117.22327,"lat":39.10959,"pinyin":"Hexi","pinyin_short":"HX","pinyin_first":"H"},
    {"id":120104,"parentid":120100,"name":"南开区","shortname":"南开","mergername":"中国,天津,天津市,南开区","leveltype":3,"citycode":"022","zipcode":300110,"lng":117.15074,"lat":39.13821,"pinyin":"Nankai","pinyin_short":"NK","pinyin_first":"N"},
    {"id":120105,"parentid":120100,"name":"河北区","shortname":"河北","mergername":"中国,天津,天津市,河北区","leveltype":3,"citycode":"022","zipcode":300143,"lng":117.19697,"lat":39.14816,"pinyin":"Hebei","pinyin_short":"HB","pinyin_first":"H"},
    {"id":120106,"parentid":120100,"name":"红桥区","shortname":"红桥","mergername":"中国,天津,天津市,红桥区","leveltype":3,"citycode":"022","zipcode":300131,"lng":117.15145,"lat":39.16715,"pinyin":"Hongqiao","pinyin_short":"HQ","pinyin_first":"H"},
    {"id":120110,"parentid":120100,"name":"东丽区","shortname":"东丽","mergername":"中国,天津,天津市,东丽区","leveltype":3,"citycode":"022","zipcode":300300,"lng":117.31436,"lat":39.0863,"pinyin":"Dongli","pinyin_short":"DL","pinyin_first":"D"},
    {"id":120111,"parentid":120100,"name":"西青区","shortname":"西青","mergername":"中国,天津,天津市,西青区","leveltype":3,"citycode":"022","zipcode":300380,"lng":117.00927,"lat":39.14123,"pinyin":"Xiqing","pinyin_short":"XQ","pinyin_first":"X"},
    {"id":120112,"parentid":120100,"name":"津南区","shortname":"津南","mergername":"中国,天津,天津市,津南区","leveltype":3,"citycode":"022","zipcode":300350,"lng":117.38537,"lat":38.99139,"pinyin":"Jinnan","pinyin_short":"JN","pinyin_first":"J"},
    {"id":120113,"parentid":120100,"name":"北辰区","shortname":"北辰","mergername":"中国,天津,天津市,北辰区","leveltype":3,"citycode":"022","zipcode":300400,"lng":117.13217,"lat":39.22131,"pinyin":"Beichen","pinyin_short":"BC","pinyin_first":"B"},
    {"id":120114,"parentid":120100,"name":"武清区","shortname":"武清","mergername":"中国,天津,天津市,武清区","leveltype":3,"citycode":"022","zipcode":301700,"lng":117.04443,"lat":39.38415,"pinyin":"Wuqing","pinyin_short":"WQ","pinyin_first":"W"},
    {"id":120115,"parentid":120100,"name":"宝坻区","shortname":"宝坻","mergername":"中国,天津,天津市,宝坻区","leveltype":3,"citycode":"022","zipcode":301800,"lng":117.3103,"lat":39.71761,"pinyin":"Baodi","pinyin_short":"BD","pinyin_first":"B"},
    {"id":120116,"parentid":120100,"name":"滨海新区","shortname":"滨海新区","mergername":"中国,天津,天津市,滨海新区","leveltype":3,"citycode":"022","zipcode":300451,"lng":117.70162,"lat":39.02668,"pinyin":"Binhaixinqu","pinyin_short":"BHXQ","pinyin_first":"B"},
    {"id":120221,"parentid":120100,"name":"宁河县","shortname":"宁河","mergername":"中国,天津,天津市,宁河县","leveltype":3,"citycode":"022","zipcode":301500,"lng":117.8255,"lat":39.33048,"pinyin":"Ninghe","pinyin_short":"NH","pinyin_first":"N"},
    {"id":120223,"parentid":120100,"name":"静海县","shortname":"静海","mergername":"中国,天津,天津市,静海县","leveltype":3,"citycode":"022","zipcode":301600,"lng":116.97436,"lat":38.94582,"pinyin":"Jinghai","pinyin_short":"JH","pinyin_first":"J"},
    {"id":120225,"parentid":120100,"name":"蓟县","shortname":"蓟县","mergername":"中国,天津,天津市,蓟县","leveltype":3,"citycode":"022","zipcode":301900,"lng":117.40799,"lat":40.04567,"pinyin":"Jixian","pinyin_short":"JX","pinyin_first":"J"},
    {"id":130000,"parentid":100000,"name":"河北省","shortname":"河北","mergername":"中国,河北省","leveltype":1,"citycode":"","zipcode":"","lng":114.502461,"lat":38.045474,"pinyin":"Hebei","pinyin_short":"HB","pinyin_first":"H"},
    {"id":130100,"parentid":130000,"name":"石家庄市","shortname":"石家庄","mergername":"中国,河北省,石家庄市","leveltype":2,"citycode":"0311","zipcode":"050011","lng":114.502461,"lat":38.045474,"pinyin":"Shijiazhuang","pinyin_short":"SJZ","pinyin_first":"S"},
    {"id":130102,"parentid":130100,"name":"长安区","shortname":"长安","mergername":"中国,河北省,石家庄市,长安区","leveltype":3,"citycode":"0311","zipcode":"050011","lng":114.53906,"lat":38.03665,"pinyin":"Chang'an","pinyin_short":"CA","pinyin_first":"C"},
    {"id":130104,"parentid":130100,"name":"桥西区","shortname":"桥西","mergername":"中国,河北省,石家庄市,桥西区","leveltype":3,"citycode":"0311","zipcode":"050091","lng":114.46977,"lat":38.03221,"pinyin":"Qiaoxi","pinyin_short":"QX","pinyin_first":"Q"},
    {"id":130105,"parentid":130100,"name":"新华区","shortname":"新华","mergername":"中国,河北省,石家庄市,新华区","leveltype":3,"citycode":"0311","zipcode":"050051","lng":114.46326,"lat":38.05088,"pinyin":"Xinhua","pinyin_short":"XH","pinyin_first":"X"},
    {"id":130107,"parentid":130100,"name":"井陉矿区","shortname":"井陉矿区","mergername":"中国,河北省,石家庄市,井陉矿区","leveltype":3,"citycode":"0311","zipcode":"050100","lng":114.06518,"lat":38.06705,"pinyin":"Jingxingkuangqu","pinyin_short":"JXKQ","pinyin_first":"J"},
    {"id":130108,"parentid":130100,"name":"裕华区","shortname":"裕华","mergername":"中国,河北省,石家庄市,裕华区","leveltype":3,"citycode":"0311","zipcode":"050031","lng":114.53115,"lat":38.00604,"pinyin":"Yuhua","pinyin_short":"YH","pinyin_first":"Y"},
    {"id":130109,"parentid":130100,"name":"藁城区","shortname":"藁城","mergername":"中国,河北省,石家庄市,藁城区","leveltype":3,"citycode":"0311","zipcode":"052160","lng":114.84671,"lat":38.02162,"pinyin":"Gaocheng","pinyin_short":"GC","pinyin_first":"G"},
    {"id":130110,"parentid":130100,"name":"鹿泉区","shortname":"鹿泉","mergername":"中国,河北省,石家庄市,鹿泉区","leveltype":3,"citycode":"0311","zipcode":"050200","lng":114.31347,"lat":38.08782,"pinyin":"Luquan","pinyin_short":"LQ","pinyin_first":"L"},
    {"id":130111,"parentid":130100,"name":"栾城区","shortname":"栾城","mergername":"中国,河北省,石家庄市,栾城区","leveltype":3,"citycode":"0311","zipcode":"051430","lng":114.64834,"lat":37.90022,"pinyin":"Luancheng","pinyin_short":"LC","pinyin_first":"L"},
    {"id":130121,"parentid":130100,"name":"井陉县","shortname":"井陉","mergername":"中国,河北省,石家庄市,井陉县","leveltype":3,"citycode":"0311","zipcode":"050300","lng":114.14257,"lat":38.03688,"pinyin":"Jingxing","pinyin_short":"JX","pinyin_first":"J"},
    {"id":130123,"parentid":130100,"name":"正定县","shortname":"正定","mergername":"中国,河北省,石家庄市,正定县","leveltype":3,"citycode":"0311","zipcode":"050800","lng":114.57296,"lat":38.14445,"pinyin":"Zhengding","pinyin_short":"ZD","pinyin_first":"Z"},
    {"id":130125,"parentid":130100,"name":"行唐县","shortname":"行唐","mergername":"中国,河北省,石家庄市,行唐县","leveltype":3,"citycode":"0311","zipcode":"050600","lng":114.55316,"lat":38.43654,"pinyin":"Xingtang","pinyin_short":"XT","pinyin_first":"X"},
    {"id":130126,"parentid":130100,"name":"灵寿县","shortname":"灵寿","mergername":"中国,河北省,石家庄市,灵寿县","leveltype":3,"citycode":"0311","zipcode":"050500","lng":114.38259,"lat":38.30845,"pinyin":"Lingshou","pinyin_short":"LS","pinyin_first":"L"},
    {"id":130127,"parentid":130100,"name":"高邑县","shortname":"高邑","mergername":"中国,河北省,石家庄市,高邑县","leveltype":3,"citycode":"0311","zipcode":"051330","lng":114.61142,"lat":37.61556,"pinyin":"Gaoyi","pinyin_short":"GY","pinyin_first":"G"},
    {"id":130128,"parentid":130100,"name":"深泽县","shortname":"深泽","mergername":"中国,河北省,石家庄市,深泽县","leveltype":3,"citycode":"0311","zipcode":"052560","lng":115.20358,"lat":38.18353,"pinyin":"Shenze","pinyin_short":"SZ","pinyin_first":"S"},
    {"id":130129,"parentid":130100,"name":"赞皇县","shortname":"赞皇","mergername":"中国,河北省,石家庄市,赞皇县","leveltype":3,"citycode":"0311","zipcode":"051230","lng":114.38775,"lat":37.66135,"pinyin":"Zanhuang","pinyin_short":"ZH","pinyin_first":"Z"},
    {"id":130130,"parentid":130100,"name":"无极县","shortname":"无极","mergername":"中国,河北省,石家庄市,无极县","leveltype":3,"citycode":"0311","zipcode":"052460","lng":114.97509,"lat":38.17653,"pinyin":"Wuji","pinyin_short":"WJ","pinyin_first":"W"},
    {"id":130131,"parentid":130100,"name":"平山县","shortname":"平山","mergername":"中国,河北省,石家庄市,平山县","leveltype":3,"citycode":"0311","zipcode":"050400","lng":114.186,"lat":38.25994,"pinyin":"Pingshan","pinyin_short":"PS","pinyin_first":"P"},
    {"id":130132,"parentid":130100,"name":"元氏县","shortname":"元氏","mergername":"中国,河北省,石家庄市,元氏县","leveltype":3,"citycode":"0311","zipcode":"051130","lng":114.52539,"lat":37.76668,"pinyin":"Yuanshi","pinyin_short":"YS","pinyin_first":"Y"},
    {"id":130133,"parentid":130100,"name":"赵县","shortname":"赵县","mergername":"中国,河北省,石家庄市,赵县","leveltype":3,"citycode":"0311","zipcode":"051530","lng":114.77612,"lat":37.75628,"pinyin":"Zhaoxian","pinyin_short":"ZX","pinyin_first":"Z"},
    {"id":130181,"parentid":130100,"name":"辛集市","shortname":"辛集","mergername":"中国,河北省,石家庄市,辛集市","leveltype":3,"citycode":"0311","zipcode":"052360","lng":115.20626,"lat":37.94079,"pinyin":"Xinji","pinyin_short":"XJ","pinyin_first":"X"},
    {"id":130183,"parentid":130100,"name":"晋州市","shortname":"晋州","mergername":"中国,河北省,石家庄市,晋州市","leveltype":3,"citycode":"0311","zipcode":"052260","lng":115.04348,"lat":38.03135,"pinyin":"Jinzhou","pinyin_short":"JZ","pinyin_first":"J"},
    {"id":130184,"parentid":130100,"name":"新乐市","shortname":"新乐","mergername":"中国,河北省,石家庄市,新乐市","leveltype":3,"citycode":"0311","zipcode":"050700","lng":114.68985,"lat":38.34417,"pinyin":"Xinle","pinyin_short":"XL","pinyin_first":"X"},
    {"id":130200,"parentid":130000,"name":"唐山市","shortname":"唐山","mergername":"中国,河北省,唐山市","leveltype":2,"citycode":"0315","zipcode":"063000","lng":118.175393,"lat":39.635113,"pinyin":"Tangshan","pinyin_short":"TS","pinyin_first":"T"},
    {"id":130202,"parentid":130200,"name":"路南区","shortname":"路南","mergername":"中国,河北省,唐山市,路南区","leveltype":3,"citycode":"0315","zipcode":"063000","lng":118.15431,"lat":39.62505,"pinyin":"Lunan","pinyin_short":"LN","pinyin_first":"L"},
    {"id":130203,"parentid":130200,"name":"路北区","shortname":"路北","mergername":"中国,河北省,唐山市,路北区","leveltype":3,"citycode":"0315","zipcode":"063000","lng":118.20079,"lat":39.62436,"pinyin":"Lubei","pinyin_short":"LB","pinyin_first":"L"},
    {"id":130204,"parentid":130200,"name":"古冶区","shortname":"古冶","mergername":"中国,河北省,唐山市,古冶区","leveltype":3,"citycode":"0315","zipcode":"063100","lng":118.45803,"lat":39.71993,"pinyin":"Guye","pinyin_short":"GY","pinyin_first":"G"},
    {"id":130205,"parentid":130200,"name":"开平区","shortname":"开平","mergername":"中国,河北省,唐山市,开平区","leveltype":3,"citycode":"0315","zipcode":"063021","lng":118.26171,"lat":39.67128,"pinyin":"Kaiping","pinyin_short":"KP","pinyin_first":"K"},
    {"id":130207,"parentid":130200,"name":"丰南区","shortname":"丰南","mergername":"中国,河北省,唐山市,丰南区","leveltype":3,"citycode":"0315","zipcode":"063300","lng":118.11282,"lat":39.56483,"pinyin":"Fengnan","pinyin_short":"FN","pinyin_first":"F"},
    {"id":130208,"parentid":130200,"name":"丰润区","shortname":"丰润","mergername":"中国,河北省,唐山市,丰润区","leveltype":3,"citycode":"0315","zipcode":"064000","lng":118.12976,"lat":39.8244,"pinyin":"Fengrun","pinyin_short":"FR","pinyin_first":"F"},
    {"id":130209,"parentid":130200,"name":"曹妃甸区","shortname":"曹妃甸","mergername":"中国,河北省,唐山市,曹妃甸区","leveltype":3,"citycode":"0315","zipcode":"063200","lng":118.460379,"lat":39.27307,"pinyin":"Caofeidian","pinyin_short":"CFD","pinyin_first":"C"},
    {"id":130223,"parentid":130200,"name":"滦县","shortname":"滦县","mergername":"中国,河北省,唐山市,滦县","leveltype":3,"citycode":"0315","zipcode":"063700","lng":118.70346,"lat":39.74056,"pinyin":"Luanxian","pinyin_short":"LX","pinyin_first":"L"},
    {"id":130224,"parentid":130200,"name":"滦南县","shortname":"滦南","mergername":"中国,河北省,唐山市,滦南县","leveltype":3,"citycode":"0315","zipcode":"063500","lng":118.6741,"lat":39.5039,"pinyin":"Luannan","pinyin_short":"LN","pinyin_first":"L"},
    {"id":130225,"parentid":130200,"name":"乐亭县","shortname":"乐亭","mergername":"中国,河北省,唐山市,乐亭县","leveltype":3,"citycode":"0315","zipcode":"063600","lng":118.9125,"lat":39.42561,"pinyin":"Laoting","pinyin_short":"LT","pinyin_first":"L"},
    {"id":130227,"parentid":130200,"name":"迁西县","shortname":"迁西","mergername":"中国,河北省,唐山市,迁西县","leveltype":3,"citycode":"0315","zipcode":"064300","lng":118.31616,"lat":40.14587,"pinyin":"Qianxi","pinyin_short":"QX","pinyin_first":"Q"},
    {"id":130229,"parentid":130200,"name":"玉田县","shortname":"玉田","mergername":"中国,河北省,唐山市,玉田县","leveltype":3,"citycode":"0315","zipcode":"064100","lng":117.7388,"lat":39.90049,"pinyin":"Yutian","pinyin_short":"YT","pinyin_first":"Y"},
    {"id":130281,"parentid":130200,"name":"遵化市","shortname":"遵化","mergername":"中国,河北省,唐山市,遵化市","leveltype":3,"citycode":"0315","zipcode":"064200","lng":117.96444,"lat":40.18741,"pinyin":"Zunhua","pinyin_short":"ZH","pinyin_first":"Z"},
    {"id":130283,"parentid":130200,"name":"迁安市","shortname":"迁安","mergername":"中国,河北省,唐山市,迁安市","leveltype":3,"citycode":"0315","zipcode":"064400","lng":118.70068,"lat":39.99833,"pinyin":"Qian'an","pinyin_short":"QA","pinyin_first":"Q"},
    {"id":130300,"parentid":130000,"name":"秦皇岛市","shortname":"秦皇岛","mergername":"中国,河北省,秦皇岛市","leveltype":2,"citycode":"0335","zipcode":"066000","lng":119.586579,"lat":39.942531,"pinyin":"Qinhuangdao","pinyin_short":"QHD","pinyin_first":"Q"},
    {"id":130302,"parentid":130300,"name":"海港区","shortname":"海港","mergername":"中国,河北省,秦皇岛市,海港区","leveltype":3,"citycode":"0335","zipcode":"066000","lng":119.61046,"lat":39.9345,"pinyin":"Haigang","pinyin_short":"HG","pinyin_first":"H"},
    {"id":130303,"parentid":130300,"name":"山海关区","shortname":"山海关","mergername":"中国,河北省,秦皇岛市,山海关区","leveltype":3,"citycode":"0335","zipcode":"066200","lng":119.77563,"lat":39.97869,"pinyin":"Shanhaiguan","pinyin_short":"SHG","pinyin_first":"S"},
    {"id":130304,"parentid":130300,"name":"北戴河区","shortname":"北戴河","mergername":"中国,河北省,秦皇岛市,北戴河区","leveltype":3,"citycode":"0335","zipcode":"066100","lng":119.48388,"lat":39.83408,"pinyin":"Beidaihe","pinyin_short":"BDH","pinyin_first":"B"},
    {"id":130321,"parentid":130300,"name":"青龙满族自治县","shortname":"青龙","mergername":"中国,河北省,秦皇岛市,青龙满族自治县","leveltype":3,"citycode":"0335","zipcode":"066500","lng":118.95242,"lat":40.40743,"pinyin":"Qinglong","pinyin_short":"QL","pinyin_first":"Q"},
    {"id":130322,"parentid":130300,"name":"昌黎县","shortname":"昌黎","mergername":"中国,河北省,秦皇岛市,昌黎县","leveltype":3,"citycode":"0335","zipcode":"066600","lng":119.16595,"lat":39.70884,"pinyin":"Changli","pinyin_short":"CL","pinyin_first":"C"},
    {"id":130323,"parentid":130300,"name":"抚宁县","shortname":"抚宁","mergername":"中国,河北省,秦皇岛市,抚宁县","leveltype":3,"citycode":"0335","zipcode":"066300","lng":119.24487,"lat":39.87538,"pinyin":"Funing","pinyin_short":"FN","pinyin_first":"F"},
    {"id":130324,"parentid":130300,"name":"卢龙县","shortname":"卢龙","mergername":"中国,河北省,秦皇岛市,卢龙县","leveltype":3,"citycode":"0335","zipcode":"066400","lng":118.89288,"lat":39.89176,"pinyin":"Lulong","pinyin_short":"LL","pinyin_first":"L"},
    {"id":130400,"parentid":130000,"name":"邯郸市","shortname":"邯郸","mergername":"中国,河北省,邯郸市","leveltype":2,"citycode":"0310","zipcode":"056002","lng":114.490686,"lat":36.612273,"pinyin":"Handan","pinyin_short":"HD","pinyin_first":"H"},
    {"id":130402,"parentid":130400,"name":"邯山区","shortname":"邯山","mergername":"中国,河北省,邯郸市,邯山区","leveltype":3,"citycode":"0310","zipcode":"056001","lng":114.48375,"lat":36.60006,"pinyin":"Hanshan","pinyin_short":"HS","pinyin_first":"H"},
    {"id":130403,"parentid":130400,"name":"丛台区","shortname":"丛台","mergername":"中国,河北省,邯郸市,丛台区","leveltype":3,"citycode":"0310","zipcode":"056002","lng":114.49343,"lat":36.61847,"pinyin":"Congtai","pinyin_short":"CT","pinyin_first":"C"},
    {"id":130404,"parentid":130400,"name":"复兴区","shortname":"复兴","mergername":"中国,河北省,邯郸市,复兴区","leveltype":3,"citycode":"0310","zipcode":"056003","lng":114.45928,"lat":36.61134,"pinyin":"Fuxing","pinyin_short":"FX","pinyin_first":"F"},
    {"id":130406,"parentid":130400,"name":"峰峰矿区","shortname":"峰峰矿区","mergername":"中国,河北省,邯郸市,峰峰矿区","leveltype":3,"citycode":"0310","zipcode":"056200","lng":114.21148,"lat":36.41937,"pinyin":"Fengfengkuangqu","pinyin_short":"FFKQ","pinyin_first":"F"},
    {"id":130421,"parentid":130400,"name":"邯郸县","shortname":"邯郸","mergername":"中国,河北省,邯郸市,邯郸县","leveltype":3,"citycode":"0310","zipcode":"056101","lng":114.53103,"lat":36.59385,"pinyin":"Handan","pinyin_short":"HD","pinyin_first":"H"},
    {"id":130423,"parentid":130400,"name":"临漳县","shortname":"临漳","mergername":"中国,河北省,邯郸市,临漳县","leveltype":3,"citycode":"0310","zipcode":"056600","lng":114.6195,"lat":36.33461,"pinyin":"Linzhang","pinyin_short":"LZ","pinyin_first":"L"},
    {"id":130424,"parentid":130400,"name":"成安县","shortname":"成安","mergername":"中国,河北省,邯郸市,成安县","leveltype":3,"citycode":"0310","zipcode":"056700","lng":114.66995,"lat":36.44411,"pinyin":"Cheng'an","pinyin_short":"CA","pinyin_first":"C"},
    {"id":130425,"parentid":130400,"name":"大名县","shortname":"大名","mergername":"中国,河北省,邯郸市,大名县","leveltype":3,"citycode":"0310","zipcode":"056900","lng":115.15362,"lat":36.27994,"pinyin":"Daming","pinyin_short":"DM","pinyin_first":"D"},
    {"id":130426,"parentid":130400,"name":"涉县","shortname":"涉县","mergername":"中国,河北省,邯郸市,涉县","leveltype":3,"citycode":"0310","zipcode":"056400","lng":113.69183,"lat":36.58072,"pinyin":"Shexian","pinyin_short":"SX","pinyin_first":"S"},
    {"id":130427,"parentid":130400,"name":"磁县","shortname":"磁县","mergername":"中国,河北省,邯郸市,磁县","leveltype":3,"citycode":"0310","zipcode":"056500","lng":114.37387,"lat":36.37392,"pinyin":"Cixian","pinyin_short":"CX","pinyin_first":"C"},
    {"id":130428,"parentid":130400,"name":"肥乡县","shortname":"肥乡","mergername":"中国,河北省,邯郸市,肥乡县","leveltype":3,"citycode":"0310","zipcode":"057550","lng":114.79998,"lat":36.54807,"pinyin":"Feixiang","pinyin_short":"FX","pinyin_first":"F"},
    {"id":130429,"parentid":130400,"name":"永年县","shortname":"永年","mergername":"中国,河北省,邯郸市,永年县","leveltype":3,"citycode":"0310","zipcode":"057150","lng":114.48925,"lat":36.78356,"pinyin":"Yongnian","pinyin_short":"YN","pinyin_first":"Y"},
    {"id":130430,"parentid":130400,"name":"邱县","shortname":"邱县","mergername":"中国,河北省,邯郸市,邱县","leveltype":3,"citycode":"0310","zipcode":"057450","lng":115.17407,"lat":36.82082,"pinyin":"Qiuxian","pinyin_short":"QX","pinyin_first":"Q"},
    {"id":130431,"parentid":130400,"name":"鸡泽县","shortname":"鸡泽","mergername":"中国,河北省,邯郸市,鸡泽县","leveltype":3,"citycode":"0310","zipcode":"057350","lng":114.8742,"lat":36.92374,"pinyin":"Jize","pinyin_short":"JZ","pinyin_first":"J"},
    {"id":130432,"parentid":130400,"name":"广平县","shortname":"广平","mergername":"中国,河北省,邯郸市,广平县","leveltype":3,"citycode":"0310","zipcode":"057650","lng":114.94653,"lat":36.48046,"pinyin":"Guangping","pinyin_short":"GP","pinyin_first":"G"},
    {"id":130433,"parentid":130400,"name":"馆陶县","shortname":"馆陶","mergername":"中国,河北省,邯郸市,馆陶县","leveltype":3,"citycode":"0310","zipcode":"057750","lng":115.29913,"lat":36.53719,"pinyin":"Guantao","pinyin_short":"GT","pinyin_first":"G"},
    {"id":130434,"parentid":130400,"name":"魏县","shortname":"魏县","mergername":"中国,河北省,邯郸市,魏县","leveltype":3,"citycode":"0310","zipcode":"056800","lng":114.93518,"lat":36.36171,"pinyin":"Weixian","pinyin_short":"WX","pinyin_first":"W"},
    {"id":130435,"parentid":130400,"name":"曲周县","shortname":"曲周","mergername":"中国,河北省,邯郸市,曲周县","leveltype":3,"citycode":"0310","zipcode":"057250","lng":114.95196,"lat":36.77671,"pinyin":"Quzhou","pinyin_short":"QZ","pinyin_first":"Q"},
    {"id":130481,"parentid":130400,"name":"武安市","shortname":"武安","mergername":"中国,河北省,邯郸市,武安市","leveltype":3,"citycode":"0310","zipcode":"056300","lng":114.20153,"lat":36.69281,"pinyin":"Wu'an","pinyin_short":"WA","pinyin_first":"W"},
    {"id":130500,"parentid":130000,"name":"邢台市","shortname":"邢台","mergername":"中国,河北省,邢台市","leveltype":2,"citycode":"0319","zipcode":"054001","lng":114.508851,"lat":37.0682,"pinyin":"Xingtai","pinyin_short":"XT","pinyin_first":"X"},
    {"id":130502,"parentid":130500,"name":"桥东区","shortname":"桥东","mergername":"中国,河北省,邢台市,桥东区","leveltype":3,"citycode":"0319","zipcode":"054001","lng":114.50725,"lat":37.06801,"pinyin":"Qiaodong","pinyin_short":"QD","pinyin_first":"Q"},
    {"id":130503,"parentid":130500,"name":"桥西区","shortname":"桥西","mergername":"中国,河北省,邢台市,桥西区","leveltype":3,"citycode":"0319","zipcode":"054000","lng":114.46803,"lat":37.05984,"pinyin":"Qiaoxi","pinyin_short":"QX","pinyin_first":"Q"},
    {"id":130521,"parentid":130500,"name":"邢台县","shortname":"邢台","mergername":"中国,河北省,邢台市,邢台县","leveltype":3,"citycode":"0319","zipcode":"054001","lng":114.56575,"lat":37.0456,"pinyin":"Xingtai","pinyin_short":"XT","pinyin_first":"X"},
    {"id":130522,"parentid":130500,"name":"临城县","shortname":"临城","mergername":"中国,河北省,邢台市,临城县","leveltype":3,"citycode":"0319","zipcode":"054300","lng":114.50387,"lat":37.43977,"pinyin":"Lincheng","pinyin_short":"LC","pinyin_first":"L"},
    {"id":130523,"parentid":130500,"name":"内丘县","shortname":"内丘","mergername":"中国,河北省,邢台市,内丘县","leveltype":3,"citycode":"0319","zipcode":"054200","lng":114.51212,"lat":37.28671,"pinyin":"Neiqiu","pinyin_short":"NQ","pinyin_first":"N"},
    {"id":130524,"parentid":130500,"name":"柏乡县","shortname":"柏乡","mergername":"中国,河北省,邢台市,柏乡县","leveltype":3,"citycode":"0319","zipcode":"055450","lng":114.69332,"lat":37.48242,"pinyin":"Baixiang","pinyin_short":"BX","pinyin_first":"B"},
    {"id":130525,"parentid":130500,"name":"隆尧县","shortname":"隆尧","mergername":"中国,河北省,邢台市,隆尧县","leveltype":3,"citycode":"0319","zipcode":"055350","lng":114.77615,"lat":37.35351,"pinyin":"Longyao","pinyin_short":"LY","pinyin_first":"L"},
    {"id":130526,"parentid":130500,"name":"任县","shortname":"任县","mergername":"中国,河北省,邢台市,任县","leveltype":3,"citycode":"0319","zipcode":"055150","lng":114.6842,"lat":37.12575,"pinyin":"Renxian","pinyin_short":"RX","pinyin_first":"R"},
    {"id":130527,"parentid":130500,"name":"南和县","shortname":"南和","mergername":"中国,河北省,邢台市,南和县","leveltype":3,"citycode":"0319","zipcode":"054400","lng":114.68371,"lat":37.00488,"pinyin":"Nanhe","pinyin_short":"NH","pinyin_first":"N"},
    {"id":130528,"parentid":130500,"name":"宁晋县","shortname":"宁晋","mergername":"中国,河北省,邢台市,宁晋县","leveltype":3,"citycode":"0319","zipcode":"055550","lng":114.92117,"lat":37.61696,"pinyin":"Ningjin","pinyin_short":"NJ","pinyin_first":"N"},
    {"id":130529,"parentid":130500,"name":"巨鹿县","shortname":"巨鹿","mergername":"中国,河北省,邢台市,巨鹿县","leveltype":3,"citycode":"0319","zipcode":"055250","lng":115.03524,"lat":37.21801,"pinyin":"Julu","pinyin_short":"JL","pinyin_first":"J"},
    {"id":130530,"parentid":130500,"name":"新河县","shortname":"新河","mergername":"中国,河北省,邢台市,新河县","leveltype":3,"citycode":"0319","zipcode":"055650","lng":115.24987,"lat":37.52718,"pinyin":"Xinhe","pinyin_short":"XH","pinyin_first":"X"},
    {"id":130531,"parentid":130500,"name":"广宗县","shortname":"广宗","mergername":"中国,河北省,邢台市,广宗县","leveltype":3,"citycode":"0319","zipcode":"054600","lng":115.14254,"lat":37.0746,"pinyin":"Guangzong","pinyin_short":"GZ","pinyin_first":"G"},
    {"id":130532,"parentid":130500,"name":"平乡县","shortname":"平乡","mergername":"中国,河北省,邢台市,平乡县","leveltype":3,"citycode":"0319","zipcode":"054500","lng":115.03002,"lat":37.06317,"pinyin":"Pingxiang","pinyin_short":"PX","pinyin_first":"P"},
    {"id":130533,"parentid":130500,"name":"威县","shortname":"威县","mergername":"中国,河北省,邢台市,威县","leveltype":3,"citycode":"0319","zipcode":"054700","lng":115.2637,"lat":36.9768,"pinyin":"Weixian","pinyin_short":"WX","pinyin_first":"W"},
    {"id":130534,"parentid":130500,"name":"清河县","shortname":"清河","mergername":"中国,河北省,邢台市,清河县","leveltype":3,"citycode":"0319","zipcode":"054800","lng":115.66479,"lat":37.07122,"pinyin":"Qinghe","pinyin_short":"QH","pinyin_first":"Q"},
    {"id":130535,"parentid":130500,"name":"临西县","shortname":"临西","mergername":"中国,河北省,邢台市,临西县","leveltype":3,"citycode":"0319","zipcode":"054900","lng":115.50097,"lat":36.87078,"pinyin":"Linxi","pinyin_short":"LX","pinyin_first":"L"},
    {"id":130581,"parentid":130500,"name":"南宫市","shortname":"南宫","mergername":"中国,河北省,邢台市,南宫市","leveltype":3,"citycode":"0319","zipcode":"055750","lng":115.39068,"lat":37.35799,"pinyin":"Nangong","pinyin_short":"NG","pinyin_first":"N"},
    {"id":130582,"parentid":130500,"name":"沙河市","shortname":"沙河","mergername":"中国,河北省,邢台市,沙河市","leveltype":3,"citycode":"0319","zipcode":"054100","lng":114.4981,"lat":36.8577,"pinyin":"Shahe","pinyin_short":"SH","pinyin_first":"S"},
    {"id":130600,"parentid":130000,"name":"保定市","shortname":"保定","mergername":"中国,河北省,保定市","leveltype":2,"citycode":"0312","zipcode":"071052","lng":115.482331,"lat":38.867657,"pinyin":"Baoding","pinyin_short":"BD","pinyin_first":"B"},
    {"id":130602,"parentid":130600,"name":"新市区","shortname":"新市","mergername":"中国,河北省,保定市,新市区","leveltype":3,"citycode":"0312","zipcode":"071051","lng":115.4587,"lat":38.87751,"pinyin":"Xinshi","pinyin_short":"XS","pinyin_first":"X"},
    {"id":130603,"parentid":130600,"name":"北市区","shortname":"北市","mergername":"中国,河北省,保定市,北市区","leveltype":3,"citycode":"0312","zipcode":"071000","lng":115.49715,"lat":38.88322,"pinyin":"Beishi","pinyin_short":"BS","pinyin_first":"B"},
    {"id":130604,"parentid":130600,"name":"南市区","shortname":"南市","mergername":"中国,河北省,保定市,南市区","leveltype":3,"citycode":"0312","zipcode":"071001","lng":115.52859,"lat":38.85455,"pinyin":"Nanshi","pinyin_short":"NS","pinyin_first":"N"},
    {"id":130621,"parentid":130600,"name":"满城县","shortname":"满城","mergername":"中国,河北省,保定市,满城县","leveltype":3,"citycode":"0312","zipcode":"072150","lng":115.32296,"lat":38.94972,"pinyin":"Mancheng","pinyin_short":"MC","pinyin_first":"M"},
    {"id":130622,"parentid":130600,"name":"清苑县","shortname":"清苑","mergername":"中国,河北省,保定市,清苑县","leveltype":3,"citycode":"0312","zipcode":"071100","lng":115.49267,"lat":38.76709,"pinyin":"Qingyuan","pinyin_short":"QY","pinyin_first":"Q"},
    {"id":130623,"parentid":130600,"name":"涞水县","shortname":"涞水","mergername":"中国,河北省,保定市,涞水县","leveltype":3,"citycode":"0312","zipcode":"074100","lng":115.71517,"lat":39.39404,"pinyin":"Laishui","pinyin_short":"LS","pinyin_first":"L"},
    {"id":130624,"parentid":130600,"name":"阜平县","shortname":"阜平","mergername":"中国,河北省,保定市,阜平县","leveltype":3,"citycode":"0312","zipcode":"073200","lng":114.19683,"lat":38.84763,"pinyin":"Fuping","pinyin_short":"FP","pinyin_first":"F"},
    {"id":130625,"parentid":130600,"name":"徐水县","shortname":"徐水","mergername":"中国,河北省,保定市,徐水县","leveltype":3,"citycode":"0312","zipcode":"072550","lng":115.65829,"lat":39.02099,"pinyin":"Xushui","pinyin_short":"XS","pinyin_first":"X"},
    {"id":130626,"parentid":130600,"name":"定兴县","shortname":"定兴","mergername":"中国,河北省,保定市,定兴县","leveltype":3,"citycode":"0312","zipcode":"072650","lng":115.80786,"lat":39.26312,"pinyin":"Dingxing","pinyin_short":"DX","pinyin_first":"D"},
    {"id":130627,"parentid":130600,"name":"唐县","shortname":"唐县","mergername":"中国,河北省,保定市,唐县","leveltype":3,"citycode":"0312","zipcode":"072350","lng":114.98516,"lat":38.74513,"pinyin":"Tangxian","pinyin_short":"TX","pinyin_first":"T"},
    {"id":130628,"parentid":130600,"name":"高阳县","shortname":"高阳","mergername":"中国,河北省,保定市,高阳县","leveltype":3,"citycode":"0312","zipcode":"071500","lng":115.7788,"lat":38.70003,"pinyin":"Gaoyang","pinyin_short":"GY","pinyin_first":"G"},
    {"id":130629,"parentid":130600,"name":"容城县","shortname":"容城","mergername":"中国,河北省,保定市,容城县","leveltype":3,"citycode":"0312","zipcode":"071700","lng":115.87158,"lat":39.0535,"pinyin":"Rongcheng","pinyin_short":"RC","pinyin_first":"R"},
    {"id":130630,"parentid":130600,"name":"涞源县","shortname":"涞源","mergername":"中国,河北省,保定市,涞源县","leveltype":3,"citycode":"0312","zipcode":"074300","lng":114.69128,"lat":39.35388,"pinyin":"Laiyuan","pinyin_short":"LY","pinyin_first":"L"},
    {"id":130631,"parentid":130600,"name":"望都县","shortname":"望都","mergername":"中国,河北省,保定市,望都县","leveltype":3,"citycode":"0312","zipcode":"072450","lng":115.1567,"lat":38.70996,"pinyin":"Wangdu","pinyin_short":"WD","pinyin_first":"W"},
    {"id":130632,"parentid":130600,"name":"安新县","shortname":"安新","mergername":"中国,河北省,保定市,安新县","leveltype":3,"citycode":"0312","zipcode":"071600","lng":115.93557,"lat":38.93532,"pinyin":"Anxin","pinyin_short":"AX","pinyin_first":"A"},
    {"id":130633,"parentid":130600,"name":"易县","shortname":"易县","mergername":"中国,河北省,保定市,易县","leveltype":3,"citycode":"0312","zipcode":"074200","lng":115.4981,"lat":39.34885,"pinyin":"Yixian","pinyin_short":"YX","pinyin_first":"Y"},
    {"id":130634,"parentid":130600,"name":"曲阳县","shortname":"曲阳","mergername":"中国,河北省,保定市,曲阳县","leveltype":3,"citycode":"0312","zipcode":"073100","lng":114.70123,"lat":38.62154,"pinyin":"Quyang","pinyin_short":"QY","pinyin_first":"Q"},
    {"id":130635,"parentid":130600,"name":"蠡县","shortname":"蠡县","mergername":"中国,河北省,保定市,蠡县","leveltype":3,"citycode":"0312","zipcode":"071400","lng":115.57717,"lat":38.48974,"pinyin":"Lixian","pinyin_short":"LX","pinyin_first":"L"},
    {"id":130636,"parentid":130600,"name":"顺平县","shortname":"顺平","mergername":"中国,河北省,保定市,顺平县","leveltype":3,"citycode":"0312","zipcode":"072250","lng":115.1347,"lat":38.83854,"pinyin":"Shunping","pinyin_short":"SP","pinyin_first":"S"},
    {"id":130637,"parentid":130600,"name":"博野县","shortname":"博野","mergername":"中国,河北省,保定市,博野县","leveltype":3,"citycode":"0312","zipcode":"071300","lng":115.47033,"lat":38.4564,"pinyin":"Boye","pinyin_short":"BY","pinyin_first":"B"},
    {"id":130638,"parentid":130600,"name":"雄县","shortname":"雄县","mergername":"中国,河北省,保定市,雄县","leveltype":3,"citycode":"0312","zipcode":"071800","lng":116.10873,"lat":38.99442,"pinyin":"Xiongxian","pinyin_short":"XX","pinyin_first":"X"},
    {"id":130681,"parentid":130600,"name":"涿州市","shortname":"涿州","mergername":"中国,河北省,保定市,涿州市","leveltype":3,"citycode":"0312","zipcode":"072750","lng":115.98062,"lat":39.48622,"pinyin":"Zhuozhou","pinyin_short":"ZZ","pinyin_first":"Z"},
    {"id":130682,"parentid":130600,"name":"定州市","shortname":"定州","mergername":"中国,河北省,保定市,定州市","leveltype":3,"citycode":"0312","zipcode":"073000","lng":114.9902,"lat":38.51623,"pinyin":"Dingzhou","pinyin_short":"DZ","pinyin_first":"D"},
    {"id":130683,"parentid":130600,"name":"安国市","shortname":"安国","mergername":"中国,河北省,保定市,安国市","leveltype":3,"citycode":"0312","zipcode":"071200","lng":115.32321,"lat":38.41391,"pinyin":"Anguo","pinyin_short":"AG","pinyin_first":"A"},
    {"id":130684,"parentid":130600,"name":"高碑店市","shortname":"高碑店","mergername":"中国,河北省,保定市,高碑店市","leveltype":3,"citycode":"0312","zipcode":"074000","lng":115.87368,"lat":39.32655,"pinyin":"Gaobeidian","pinyin_short":"GBD","pinyin_first":"G"},
    {"id":130700,"parentid":130000,"name":"张家口市","shortname":"张家口","mergername":"中国,河北省,张家口市","leveltype":2,"citycode":"0313","zipcode":"075000","lng":114.884091,"lat":40.811901,"pinyin":"Zhangjiakou","pinyin_short":"ZJK","pinyin_first":"Z"},
    {"id":130702,"parentid":130700,"name":"桥东区","shortname":"桥东","mergername":"中国,河北省,张家口市,桥东区","leveltype":3,"citycode":"0313","zipcode":"075000","lng":114.8943,"lat":40.78844,"pinyin":"Qiaodong","pinyin_short":"QD","pinyin_first":"Q"},
    {"id":130703,"parentid":130700,"name":"桥西区","shortname":"桥西","mergername":"中国,河北省,张家口市,桥西区","leveltype":3,"citycode":"0313","zipcode":"075061","lng":114.86962,"lat":40.81945,"pinyin":"Qiaoxi","pinyin_short":"QX","pinyin_first":"Q"},
    {"id":130705,"parentid":130700,"name":"宣化区","shortname":"宣化","mergername":"中国,河北省,张家口市,宣化区","leveltype":3,"citycode":"0313","zipcode":"075100","lng":115.06543,"lat":40.60957,"pinyin":"Xuanhua","pinyin_short":"XH","pinyin_first":"X"},
    {"id":130706,"parentid":130700,"name":"下花园区","shortname":"下花园","mergername":"中国,河北省,张家口市,下花园区","leveltype":3,"citycode":"0313","zipcode":"075300","lng":115.28744,"lat":40.50236,"pinyin":"Xiahuayuan","pinyin_short":"XHY","pinyin_first":"X"},
    {"id":130721,"parentid":130700,"name":"宣化县","shortname":"宣化","mergername":"中国,河北省,张家口市,宣化县","leveltype":3,"citycode":"0313","zipcode":"075100","lng":115.15497,"lat":40.56618,"pinyin":"Xuanhua","pinyin_short":"XH","pinyin_first":"X"},
    {"id":130722,"parentid":130700,"name":"张北县","shortname":"张北","mergername":"中国,河北省,张家口市,张北县","leveltype":3,"citycode":"0313","zipcode":"076450","lng":114.71432,"lat":41.15977,"pinyin":"Zhangbei","pinyin_short":"ZB","pinyin_first":"Z"},
    {"id":130723,"parentid":130700,"name":"康保县","shortname":"康保","mergername":"中国,河北省,张家口市,康保县","leveltype":3,"citycode":"0313","zipcode":"076650","lng":114.60031,"lat":41.85225,"pinyin":"Kangbao","pinyin_short":"KB","pinyin_first":"K"},
    {"id":130724,"parentid":130700,"name":"沽源县","shortname":"沽源","mergername":"中国,河北省,张家口市,沽源县","leveltype":3,"citycode":"0313","zipcode":"076550","lng":115.68859,"lat":41.66959,"pinyin":"Guyuan","pinyin_short":"GY","pinyin_first":"G"},
    {"id":130725,"parentid":130700,"name":"尚义县","shortname":"尚义","mergername":"中国,河北省,张家口市,尚义县","leveltype":3,"citycode":"0313","zipcode":"076750","lng":113.97134,"lat":41.07782,"pinyin":"Shangyi","pinyin_short":"SY","pinyin_first":"S"},
    {"id":130726,"parentid":130700,"name":"蔚县","shortname":"蔚县","mergername":"中国,河北省,张家口市,蔚县","leveltype":3,"citycode":"0313","zipcode":"075700","lng":114.58892,"lat":39.84067,"pinyin":"Yuxian","pinyin_short":"WX","pinyin_first":"W"},
    {"id":130727,"parentid":130700,"name":"阳原县","shortname":"阳原","mergername":"中国,河北省,张家口市,阳原县","leveltype":3,"citycode":"0313","zipcode":"075800","lng":114.15051,"lat":40.10361,"pinyin":"Yangyuan","pinyin_short":"YY","pinyin_first":"Y"},
    {"id":130728,"parentid":130700,"name":"怀安县","shortname":"怀安","mergername":"中国,河北省,张家口市,怀安县","leveltype":3,"citycode":"0313","zipcode":"076150","lng":114.38559,"lat":40.67425,"pinyin":"Huai'an","pinyin_short":"HA","pinyin_first":"H"},
    {"id":130729,"parentid":130700,"name":"万全县","shortname":"万全","mergername":"中国,河北省,张家口市,万全县","leveltype":3,"citycode":"0313","zipcode":"076250","lng":114.7405,"lat":40.76694,"pinyin":"Wanquan","pinyin_short":"WQ","pinyin_first":"W"},
    {"id":130730,"parentid":130700,"name":"怀来县","shortname":"怀来","mergername":"中国,河北省,张家口市,怀来县","leveltype":3,"citycode":"0313","zipcode":"075400","lng":115.51773,"lat":40.41536,"pinyin":"Huailai","pinyin_short":"HL","pinyin_first":"H"},
    {"id":130731,"parentid":130700,"name":"涿鹿县","shortname":"涿鹿","mergername":"中国,河北省,张家口市,涿鹿县","leveltype":3,"citycode":"0313","zipcode":"075600","lng":115.22403,"lat":40.37636,"pinyin":"Zhuolu","pinyin_short":"ZL","pinyin_first":"Z"},
    {"id":130732,"parentid":130700,"name":"赤城县","shortname":"赤城","mergername":"中国,河北省,张家口市,赤城县","leveltype":3,"citycode":"0313","zipcode":"075500","lng":115.83187,"lat":40.91438,"pinyin":"Chicheng","pinyin_short":"CC","pinyin_first":"C"},
    {"id":130733,"parentid":130700,"name":"崇礼县","shortname":"崇礼","mergername":"中国,河北省,张家口市,崇礼县","leveltype":3,"citycode":"0313","zipcode":"076350","lng":115.27993,"lat":40.97519,"pinyin":"Chongli","pinyin_short":"CL","pinyin_first":"C"},
    {"id":130800,"parentid":130000,"name":"承德市","shortname":"承德","mergername":"中国,河北省,承德市","leveltype":2,"citycode":"0314","zipcode":"067000","lng":117.939152,"lat":40.976204,"pinyin":"Chengde","pinyin_short":"CD","pinyin_first":"C"},
    {"id":130802,"parentid":130800,"name":"双桥区","shortname":"双桥","mergername":"中国,河北省,承德市,双桥区","leveltype":3,"citycode":"0314","zipcode":"067000","lng":117.9432,"lat":40.97466,"pinyin":"Shuangqiao","pinyin_short":"SQ","pinyin_first":"S"},
    {"id":130803,"parentid":130800,"name":"双滦区","shortname":"双滦","mergername":"中国,河北省,承德市,双滦区","leveltype":3,"citycode":"0314","zipcode":"067001","lng":117.74487,"lat":40.95375,"pinyin":"Shuangluan","pinyin_short":"SL","pinyin_first":"S"},
    {"id":130804,"parentid":130800,"name":"鹰手营子矿区","shortname":"鹰手营子矿区","mergername":"中国,河北省,承德市,鹰手营子矿区","leveltype":3,"citycode":"0314","zipcode":"067200","lng":117.65985,"lat":40.54744,"pinyin":"Yingshouyingzikuangqu","pinyin_short":"YSYZKQ","pinyin_first":"Y"},
    {"id":130821,"parentid":130800,"name":"承德县","shortname":"承德","mergername":"中国,河北省,承德市,承德县","leveltype":3,"citycode":"0314","zipcode":"067400","lng":118.17639,"lat":40.76985,"pinyin":"Chengde","pinyin_short":"CD","pinyin_first":"C"},
    {"id":130822,"parentid":130800,"name":"兴隆县","shortname":"兴隆","mergername":"中国,河北省,承德市,兴隆县","leveltype":3,"citycode":"0314","zipcode":"067300","lng":117.50073,"lat":40.41709,"pinyin":"Xinglong","pinyin_short":"XL","pinyin_first":"X"},
    {"id":130823,"parentid":130800,"name":"平泉县","shortname":"平泉","mergername":"中国,河北省,承德市,平泉县","leveltype":3,"citycode":"0314","zipcode":"067500","lng":118.70196,"lat":41.01839,"pinyin":"Pingquan","pinyin_short":"PQ","pinyin_first":"P"},
    {"id":130824,"parentid":130800,"name":"滦平县","shortname":"滦平","mergername":"中国,河北省,承德市,滦平县","leveltype":3,"citycode":"0314","zipcode":"068250","lng":117.33276,"lat":40.94148,"pinyin":"Luanping","pinyin_short":"LP","pinyin_first":"L"},
    {"id":130825,"parentid":130800,"name":"隆化县","shortname":"隆化","mergername":"中国,河北省,承德市,隆化县","leveltype":3,"citycode":"0314","zipcode":"068150","lng":117.7297,"lat":41.31412,"pinyin":"Longhua","pinyin_short":"LH","pinyin_first":"L"},
    {"id":130826,"parentid":130800,"name":"丰宁满族自治县","shortname":"丰宁","mergername":"中国,河北省,承德市,丰宁满族自治县","leveltype":3,"citycode":"0314","zipcode":"068350","lng":116.6492,"lat":41.20481,"pinyin":"Fengning","pinyin_short":"FN","pinyin_first":"F"},
    {"id":130827,"parentid":130800,"name":"宽城满族自治县","shortname":"宽城","mergername":"中国,河北省,承德市,宽城满族自治县","leveltype":3,"citycode":"0314","zipcode":"067600","lng":118.49176,"lat":40.60829,"pinyin":"Kuancheng","pinyin_short":"KC","pinyin_first":"K"},
    {"id":130828,"parentid":130800,"name":"围场满族蒙古族自治县","shortname":"围场","mergername":"中国,河北省,承德市,围场满族蒙古族自治县","leveltype":3,"citycode":"0314","zipcode":"068450","lng":117.7601,"lat":41.94368,"pinyin":"Weichang","pinyin_short":"WC","pinyin_first":"W"},
    {"id":130900,"parentid":130000,"name":"沧州市","shortname":"沧州","mergername":"中国,河北省,沧州市","leveltype":2,"citycode":"0317","zipcode":"061001","lng":116.857461,"lat":38.310582,"pinyin":"Cangzhou","pinyin_short":"CZ","pinyin_first":"C"},
    {"id":130902,"parentid":130900,"name":"新华区","shortname":"新华","mergername":"中国,河北省,沧州市,新华区","leveltype":3,"citycode":"0317","zipcode":"061000","lng":116.86643,"lat":38.31438,"pinyin":"Xinhua","pinyin_short":"XH","pinyin_first":"X"},
    {"id":130903,"parentid":130900,"name":"运河区","shortname":"运河","mergername":"中国,河北省,沧州市,运河区","leveltype":3,"citycode":"0317","zipcode":"061001","lng":116.85706,"lat":38.31352,"pinyin":"Yunhe","pinyin_short":"YH","pinyin_first":"Y"},
    {"id":130921,"parentid":130900,"name":"沧县","shortname":"沧县","mergername":"中国,河北省,沧州市,沧县","leveltype":3,"citycode":"0317","zipcode":"061000","lng":116.87817,"lat":38.29361,"pinyin":"Cangxian","pinyin_short":"CX","pinyin_first":"C"},
    {"id":130922,"parentid":130900,"name":"青县","shortname":"青县","mergername":"中国,河北省,沧州市,青县","leveltype":3,"citycode":"0317","zipcode":"062650","lng":116.80316,"lat":38.58345,"pinyin":"Qingxian","pinyin_short":"QX","pinyin_first":"Q"},
    {"id":130923,"parentid":130900,"name":"东光县","shortname":"东光","mergername":"中国,河北省,沧州市,东光县","leveltype":3,"citycode":"0317","zipcode":"061600","lng":116.53668,"lat":37.8857,"pinyin":"Dongguang","pinyin_short":"DG","pinyin_first":"D"},
    {"id":130924,"parentid":130900,"name":"海兴县","shortname":"海兴","mergername":"中国,河北省,沧州市,海兴县","leveltype":3,"citycode":"0317","zipcode":"061200","lng":117.49758,"lat":38.13958,"pinyin":"Haixing","pinyin_short":"HX","pinyin_first":"H"},
    {"id":130925,"parentid":130900,"name":"盐山县","shortname":"盐山","mergername":"中国,河北省,沧州市,盐山县","leveltype":3,"citycode":"0317","zipcode":"061300","lng":117.23092,"lat":38.05647,"pinyin":"Yanshan","pinyin_short":"YS","pinyin_first":"Y"},
    {"id":130926,"parentid":130900,"name":"肃宁县","shortname":"肃宁","mergername":"中国,河北省,沧州市,肃宁县","leveltype":3,"citycode":"0317","zipcode":"062350","lng":115.82971,"lat":38.42272,"pinyin":"Suning","pinyin_short":"SN","pinyin_first":"S"},
    {"id":130927,"parentid":130900,"name":"南皮县","shortname":"南皮","mergername":"中国,河北省,沧州市,南皮县","leveltype":3,"citycode":"0317","zipcode":"061500","lng":116.70224,"lat":38.04109,"pinyin":"Nanpi","pinyin_short":"NP","pinyin_first":"N"},
    {"id":130928,"parentid":130900,"name":"吴桥县","shortname":"吴桥","mergername":"中国,河北省,沧州市,吴桥县","leveltype":3,"citycode":"0317","zipcode":"061800","lng":116.3847,"lat":37.62546,"pinyin":"Wuqiao","pinyin_short":"WQ","pinyin_first":"W"},
    {"id":130929,"parentid":130900,"name":"献县","shortname":"献县","mergername":"中国,河北省,沧州市,献县","leveltype":3,"citycode":"0317","zipcode":"062250","lng":116.12695,"lat":38.19228,"pinyin":"Xianxian","pinyin_short":"XX","pinyin_first":"X"},
    {"id":130930,"parentid":130900,"name":"孟村回族自治县","shortname":"孟村","mergername":"中国,河北省,沧州市,孟村回族自治县","leveltype":3,"citycode":"0317","zipcode":"061400","lng":117.10412,"lat":38.05338,"pinyin":"Mengcun","pinyin_short":"MC","pinyin_first":"M"},
    {"id":130981,"parentid":130900,"name":"泊头市","shortname":"泊头","mergername":"中国,河北省,沧州市,泊头市","leveltype":3,"citycode":"0317","zipcode":"062150","lng":116.57824,"lat":38.08359,"pinyin":"Botou","pinyin_short":"BT","pinyin_first":"B"},
    {"id":130982,"parentid":130900,"name":"任丘市","shortname":"任丘","mergername":"中国,河北省,沧州市,任丘市","leveltype":3,"citycode":"0317","zipcode":"062550","lng":116.1033,"lat":38.71124,"pinyin":"Renqiu","pinyin_short":"RQ","pinyin_first":"R"},
    {"id":130983,"parentid":130900,"name":"黄骅市","shortname":"黄骅","mergername":"中国,河北省,沧州市,黄骅市","leveltype":3,"citycode":"0317","zipcode":"061100","lng":117.33883,"lat":38.3706,"pinyin":"Huanghua","pinyin_short":"HH","pinyin_first":"H"},
    {"id":130984,"parentid":130900,"name":"河间市","shortname":"河间","mergername":"中国,河北省,沧州市,河间市","leveltype":3,"citycode":"0317","zipcode":"062450","lng":116.0993,"lat":38.44549,"pinyin":"Hejian","pinyin_short":"HJ","pinyin_first":"H"},
    {"id":131000,"parentid":130000,"name":"廊坊市","shortname":"廊坊","mergername":"中国,河北省,廊坊市","leveltype":2,"citycode":"0316","zipcode":"065000","lng":116.713873,"lat":39.529244,"pinyin":"Langfang","pinyin_short":"LF","pinyin_first":"L"},
    {"id":131002,"parentid":131000,"name":"安次区","shortname":"安次","mergername":"中国,河北省,廊坊市,安次区","leveltype":3,"citycode":"0316","zipcode":"065000","lng":116.70308,"lat":39.52057,"pinyin":"Anci","pinyin_short":"AC","pinyin_first":"A"},
    {"id":131003,"parentid":131000,"name":"广阳区","shortname":"广阳","mergername":"中国,河北省,廊坊市,广阳区","leveltype":3,"citycode":"0316","zipcode":"065000","lng":116.71069,"lat":39.52278,"pinyin":"Guangyang","pinyin_short":"GY","pinyin_first":"G"},
    {"id":131022,"parentid":131000,"name":"固安县","shortname":"固安","mergername":"中国,河北省,廊坊市,固安县","leveltype":3,"citycode":"0316","zipcode":"065500","lng":116.29916,"lat":39.43833,"pinyin":"Gu'an","pinyin_short":"GA","pinyin_first":"G"},
    {"id":131023,"parentid":131000,"name":"永清县","shortname":"永清","mergername":"中国,河北省,廊坊市,永清县","leveltype":3,"citycode":"0316","zipcode":"065600","lng":116.50091,"lat":39.32069,"pinyin":"Yongqing","pinyin_short":"YQ","pinyin_first":"Y"},
    {"id":131024,"parentid":131000,"name":"香河县","shortname":"香河","mergername":"中国,河北省,廊坊市,香河县","leveltype":3,"citycode":"0316","zipcode":"065400","lng":117.00634,"lat":39.76133,"pinyin":"Xianghe","pinyin_short":"XH","pinyin_first":"X"},
    {"id":131025,"parentid":131000,"name":"大城县","shortname":"大城","mergername":"中国,河北省,廊坊市,大城县","leveltype":3,"citycode":"0316","zipcode":"065900","lng":116.65353,"lat":38.70534,"pinyin":"Daicheng","pinyin_short":"DC","pinyin_first":"D"},
    {"id":131026,"parentid":131000,"name":"文安县","shortname":"文安","mergername":"中国,河北省,廊坊市,文安县","leveltype":3,"citycode":"0316","zipcode":"065800","lng":116.45846,"lat":38.87325,"pinyin":"Wen'an","pinyin_short":"WA","pinyin_first":"W"},
    {"id":131028,"parentid":131000,"name":"大厂回族自治县","shortname":"大厂","mergername":"中国,河北省,廊坊市,大厂回族自治县","leveltype":3,"citycode":"0316","zipcode":"065300","lng":116.98916,"lat":39.88649,"pinyin":"Dachang","pinyin_short":"DC","pinyin_first":"D"},
    {"id":131081,"parentid":131000,"name":"霸州市","shortname":"霸州","mergername":"中国,河北省,廊坊市,霸州市","leveltype":3,"citycode":"0316","zipcode":"065700","lng":116.39154,"lat":39.12569,"pinyin":"Bazhou","pinyin_short":"BZ","pinyin_first":"B"},
    {"id":131082,"parentid":131000,"name":"三河市","shortname":"三河","mergername":"中国,河北省,廊坊市,三河市","leveltype":3,"citycode":"0316","zipcode":"065200","lng":117.07229,"lat":39.98358,"pinyin":"Sanhe","pinyin_short":"SH","pinyin_first":"S"},
    {"id":131100,"parentid":130000,"name":"衡水市","shortname":"衡水","mergername":"中国,河北省,衡水市","leveltype":2,"citycode":"0318","zipcode":"053000","lng":115.665993,"lat":37.735097,"pinyin":"Hengshui","pinyin_short":"HS","pinyin_first":"H"},
    {"id":131102,"parentid":131100,"name":"桃城区","shortname":"桃城","mergername":"中国,河北省,衡水市,桃城区","leveltype":3,"citycode":"0318","zipcode":"053000","lng":115.67529,"lat":37.73499,"pinyin":"Taocheng","pinyin_short":"TC","pinyin_first":"T"},
    {"id":131121,"parentid":131100,"name":"枣强县","shortname":"枣强","mergername":"中国,河北省,衡水市,枣强县","leveltype":3,"citycode":"0318","zipcode":"053100","lng":115.72576,"lat":37.51027,"pinyin":"Zaoqiang","pinyin_short":"ZQ","pinyin_first":"Z"},
    {"id":131122,"parentid":131100,"name":"武邑县","shortname":"武邑","mergername":"中国,河北省,衡水市,武邑县","leveltype":3,"citycode":"0318","zipcode":"053400","lng":115.88748,"lat":37.80181,"pinyin":"Wuyi","pinyin_short":"WY","pinyin_first":"W"},
    {"id":131123,"parentid":131100,"name":"武强县","shortname":"武强","mergername":"中国,河北省,衡水市,武强县","leveltype":3,"citycode":"0318","zipcode":"053300","lng":115.98226,"lat":38.04138,"pinyin":"Wuqiang","pinyin_short":"WQ","pinyin_first":"W"},
    {"id":131124,"parentid":131100,"name":"饶阳县","shortname":"饶阳","mergername":"中国,河北省,衡水市,饶阳县","leveltype":3,"citycode":"0318","zipcode":"053900","lng":115.72558,"lat":38.23529,"pinyin":"Raoyang","pinyin_short":"RY","pinyin_first":"R"},
    {"id":131125,"parentid":131100,"name":"安平县","shortname":"安平","mergername":"中国,河北省,衡水市,安平县","leveltype":3,"citycode":"0318","zipcode":"053600","lng":115.51876,"lat":38.23388,"pinyin":"Anping","pinyin_short":"AP","pinyin_first":"A"},
    {"id":131126,"parentid":131100,"name":"故城县","shortname":"故城","mergername":"中国,河北省,衡水市,故城县","leveltype":3,"citycode":"0318","zipcode":"053800","lng":115.97076,"lat":37.34773,"pinyin":"Gucheng","pinyin_short":"GC","pinyin_first":"G"},
    {"id":131127,"parentid":131100,"name":"景县","shortname":"景县","mergername":"中国,河北省,衡水市,景县","leveltype":3,"citycode":"0318","zipcode":"053500","lng":116.26904,"lat":37.6926,"pinyin":"Jingxian","pinyin_short":"JX","pinyin_first":"J"},
    {"id":131128,"parentid":131100,"name":"阜城县","shortname":"阜城","mergername":"中国,河北省,衡水市,阜城县","leveltype":3,"citycode":"0318","zipcode":"053700","lng":116.14431,"lat":37.86881,"pinyin":"Fucheng","pinyin_short":"FC","pinyin_first":"F"},
    {"id":131181,"parentid":131100,"name":"冀州市","shortname":"冀州","mergername":"中国,河北省,衡水市,冀州市","leveltype":3,"citycode":"0318","zipcode":"053200","lng":115.57934,"lat":37.55082,"pinyin":"Jizhou","pinyin_short":"JZ","pinyin_first":"J"},
    {"id":131182,"parentid":131100,"name":"深州市","shortname":"深州","mergername":"中国,河北省,衡水市,深州市","leveltype":3,"citycode":"0318","zipcode":"053800","lng":115.55993,"lat":38.00109,"pinyin":"Shenzhou","pinyin_short":"SZ","pinyin_first":"S"},
    {"id":140000,"parentid":100000,"name":"山西省","shortname":"山西","mergername":"中国,山西省","leveltype":1,"citycode":"","zipcode":"","lng":112.549248,"lat":37.857014,"pinyin":"Shanxi","pinyin_short":"SX","pinyin_first":"S"},
    {"id":140100,"parentid":140000,"name":"太原市","shortname":"太原","mergername":"中国,山西省,太原市","leveltype":2,"citycode":"0351","zipcode":"030082","lng":112.549248,"lat":37.857014,"pinyin":"Taiyuan","pinyin_short":"TY","pinyin_first":"T"},
    {"id":140105,"parentid":140100,"name":"小店区","shortname":"小店","mergername":"中国,山西省,太原市,小店区","leveltype":3,"citycode":"0351","zipcode":"030032","lng":112.56878,"lat":37.73565,"pinyin":"Xiaodian","pinyin_short":"XD","pinyin_first":"X"},
    {"id":140106,"parentid":140100,"name":"迎泽区","shortname":"迎泽","mergername":"中国,山西省,太原市,迎泽区","leveltype":3,"citycode":"0351","zipcode":"030002","lng":112.56338,"lat":37.86326,"pinyin":"Yingze","pinyin_short":"YZ","pinyin_first":"Y"},
    {"id":140107,"parentid":140100,"name":"杏花岭区","shortname":"杏花岭","mergername":"中国,山西省,太原市,杏花岭区","leveltype":3,"citycode":"0351","zipcode":"030009","lng":112.56237,"lat":37.88429,"pinyin":"Xinghualing","pinyin_short":"XHL","pinyin_first":"X"},
    {"id":140108,"parentid":140100,"name":"尖草坪区","shortname":"尖草坪","mergername":"中国,山西省,太原市,尖草坪区","leveltype":3,"citycode":"0351","zipcode":"030023","lng":112.48709,"lat":37.94193,"pinyin":"Jiancaoping","pinyin_short":"JCP","pinyin_first":"J"},
    {"id":140109,"parentid":140100,"name":"万柏林区","shortname":"万柏林","mergername":"中国,山西省,太原市,万柏林区","leveltype":3,"citycode":"0351","zipcode":"030024","lng":112.51553,"lat":37.85923,"pinyin":"Wanbailin","pinyin_short":"WBL","pinyin_first":"W"},
    {"id":140110,"parentid":140100,"name":"晋源区","shortname":"晋源","mergername":"中国,山西省,太原市,晋源区","leveltype":3,"citycode":"0351","zipcode":"030025","lng":112.47985,"lat":37.72479,"pinyin":"Jinyuan","pinyin_short":"JY","pinyin_first":"J"},
    {"id":140121,"parentid":140100,"name":"清徐县","shortname":"清徐","mergername":"中国,山西省,太原市,清徐县","leveltype":3,"citycode":"0351","zipcode":"030400","lng":112.35888,"lat":37.60758,"pinyin":"Qingxu","pinyin_short":"QX","pinyin_first":"Q"},
    {"id":140122,"parentid":140100,"name":"阳曲县","shortname":"阳曲","mergername":"中国,山西省,太原市,阳曲县","leveltype":3,"citycode":"0351","zipcode":"030100","lng":112.67861,"lat":38.05989,"pinyin":"Yangqu","pinyin_short":"YQ","pinyin_first":"Y"},
    {"id":140123,"parentid":140100,"name":"娄烦县","shortname":"娄烦","mergername":"中国,山西省,太原市,娄烦县","leveltype":3,"citycode":"0351","zipcode":"030300","lng":111.79473,"lat":38.06689,"pinyin":"Loufan","pinyin_short":"LF","pinyin_first":"L"},
    {"id":140181,"parentid":140100,"name":"古交市","shortname":"古交","mergername":"中国,山西省,太原市,古交市","leveltype":3,"citycode":"0351","zipcode":"030200","lng":112.16918,"lat":37.90983,"pinyin":"Gujiao","pinyin_short":"GJ","pinyin_first":"G"},
    {"id":140200,"parentid":140000,"name":"大同市","shortname":"大同","mergername":"中国,山西省,大同市","leveltype":2,"citycode":"0352","zipcode":"037008","lng":113.295259,"lat":40.09031,"pinyin":"Datong","pinyin_short":"DT","pinyin_first":"D"},
    {"id":140202,"parentid":140200,"name":"城区","shortname":"城区","mergername":"中国,山西省,大同市,城区","leveltype":3,"citycode":"0352","zipcode":"037008","lng":113.298,"lat":40.07566,"pinyin":"Chengqu","pinyin_short":"CQ","pinyin_first":"C"},
    {"id":140203,"parentid":140200,"name":"矿区","shortname":"矿区","mergername":"中国,山西省,大同市,矿区","leveltype":3,"citycode":"0352","zipcode":"037003","lng":113.1772,"lat":40.03685,"pinyin":"Kuangqu","pinyin_short":"KQ","pinyin_first":"K"},
    {"id":140211,"parentid":140200,"name":"南郊区","shortname":"南郊","mergername":"中国,山西省,大同市,南郊区","leveltype":3,"citycode":"0352","zipcode":"037001","lng":113.14947,"lat":40.00539,"pinyin":"Nanjiao","pinyin_short":"NJ","pinyin_first":"N"},
    {"id":140212,"parentid":140200,"name":"新荣区","shortname":"新荣","mergername":"中国,山西省,大同市,新荣区","leveltype":3,"citycode":"0352","zipcode":"037002","lng":113.13504,"lat":40.25618,"pinyin":"Xinrong","pinyin_short":"XR","pinyin_first":"X"},
    {"id":140221,"parentid":140200,"name":"阳高县","shortname":"阳高","mergername":"中国,山西省,大同市,阳高县","leveltype":3,"citycode":"0352","zipcode":"038100","lng":113.75012,"lat":40.36256,"pinyin":"Yanggao","pinyin_short":"YG","pinyin_first":"Y"},
    {"id":140222,"parentid":140200,"name":"天镇县","shortname":"天镇","mergername":"中国,山西省,大同市,天镇县","leveltype":3,"citycode":"0352","zipcode":"038200","lng":114.0931,"lat":40.42299,"pinyin":"Tianzhen","pinyin_short":"TZ","pinyin_first":"T"},
    {"id":140223,"parentid":140200,"name":"广灵县","shortname":"广灵","mergername":"中国,山西省,大同市,广灵县","leveltype":3,"citycode":"0352","zipcode":"037500","lng":114.28204,"lat":39.76082,"pinyin":"Guangling","pinyin_short":"GL","pinyin_first":"G"},
    {"id":140224,"parentid":140200,"name":"灵丘县","shortname":"灵丘","mergername":"中国,山西省,大同市,灵丘县","leveltype":3,"citycode":"0352","zipcode":"034400","lng":114.23672,"lat":39.44043,"pinyin":"Lingqiu","pinyin_short":"LQ","pinyin_first":"L"},
    {"id":140225,"parentid":140200,"name":"浑源县","shortname":"浑源","mergername":"中国,山西省,大同市,浑源县","leveltype":3,"citycode":"0352","zipcode":"037400","lng":113.69552,"lat":39.69962,"pinyin":"Hunyuan","pinyin_short":"HY","pinyin_first":"H"},
    {"id":140226,"parentid":140200,"name":"左云县","shortname":"左云","mergername":"中国,山西省,大同市,左云县","leveltype":3,"citycode":"0352","zipcode":"037100","lng":112.70266,"lat":40.01336,"pinyin":"Zuoyun","pinyin_short":"ZY","pinyin_first":"Z"},
    {"id":140227,"parentid":140200,"name":"大同县","shortname":"大同","mergername":"中国,山西省,大同市,大同县","leveltype":3,"citycode":"0352","zipcode":"037300","lng":113.61212,"lat":40.04012,"pinyin":"Datong","pinyin_short":"DT","pinyin_first":"D"},
    {"id":140300,"parentid":140000,"name":"阳泉市","shortname":"阳泉","mergername":"中国,山西省,阳泉市","leveltype":2,"citycode":"0353","zipcode":"045000","lng":113.583285,"lat":37.861188,"pinyin":"Yangquan","pinyin_short":"YQ","pinyin_first":"Y"},
    {"id":140302,"parentid":140300,"name":"城区","shortname":"城区","mergername":"中国,山西省,阳泉市,城区","leveltype":3,"citycode":"0353","zipcode":"045000","lng":113.60069,"lat":37.8474,"pinyin":"Chengqu","pinyin_short":"CQ","pinyin_first":"C"},
    {"id":140303,"parentid":140300,"name":"矿区","shortname":"矿区","mergername":"中国,山西省,阳泉市,矿区","leveltype":3,"citycode":"0353","zipcode":"045000","lng":113.55677,"lat":37.86895,"pinyin":"Kuangqu","pinyin_short":"KQ","pinyin_first":"K"},
    {"id":140311,"parentid":140300,"name":"郊区","shortname":"郊区","mergername":"中国,山西省,阳泉市,郊区","leveltype":3,"citycode":"0353","zipcode":"045011","lng":113.58539,"lat":37.94139,"pinyin":"Jiaoqu","pinyin_short":"JQ","pinyin_first":"J"},
    {"id":140321,"parentid":140300,"name":"平定县","shortname":"平定","mergername":"中国,山西省,阳泉市,平定县","leveltype":3,"citycode":"0353","zipcode":"045200","lng":113.65789,"lat":37.78601,"pinyin":"Pingding","pinyin_short":"PD","pinyin_first":"P"},
    {"id":140322,"parentid":140300,"name":"盂县","shortname":"盂县","mergername":"中国,山西省,阳泉市,盂县","leveltype":3,"citycode":"0353","zipcode":"045100","lng":113.41235,"lat":38.08579,"pinyin":"Yuxian","pinyin_short":"YX","pinyin_first":"Y"},
    {"id":140400,"parentid":140000,"name":"长治市","shortname":"长治","mergername":"中国,山西省,长治市","leveltype":2,"citycode":"0355","zipcode":"046000","lng":113.113556,"lat":36.191112,"pinyin":"Changzhi","pinyin_short":"CZ","pinyin_first":"C"},
    {"id":140402,"parentid":140400,"name":"城区","shortname":"城区","mergername":"中国,山西省,长治市,城区","leveltype":3,"citycode":"0355","zipcode":"046011","lng":113.12308,"lat":36.20351,"pinyin":"Chengqu","pinyin_short":"CQ","pinyin_first":"C"},
    {"id":140411,"parentid":140400,"name":"郊区","shortname":"郊区","mergername":"中国,山西省,长治市,郊区","leveltype":3,"citycode":"0355","zipcode":"046011","lng":113.12653,"lat":36.19918,"pinyin":"Jiaoqu","pinyin_short":"JQ","pinyin_first":"J"},
    {"id":140421,"parentid":140400,"name":"长治县","shortname":"长治","mergername":"中国,山西省,长治市,长治县","leveltype":3,"citycode":"0355","zipcode":"047100","lng":113.04791,"lat":36.04722,"pinyin":"Changzhi","pinyin_short":"CZ","pinyin_first":"C"},
    {"id":140423,"parentid":140400,"name":"襄垣县","shortname":"襄垣","mergername":"中国,山西省,长治市,襄垣县","leveltype":3,"citycode":"0355","zipcode":"046200","lng":113.05157,"lat":36.53527,"pinyin":"Xiangyuan","pinyin_short":"XY","pinyin_first":"X"},
    {"id":140424,"parentid":140400,"name":"屯留县","shortname":"屯留","mergername":"中国,山西省,长治市,屯留县","leveltype":3,"citycode":"0355","zipcode":"046100","lng":112.89196,"lat":36.31579,"pinyin":"Tunliu","pinyin_short":"TL","pinyin_first":"T"},
    {"id":140425,"parentid":140400,"name":"平顺县","shortname":"平顺","mergername":"中国,山西省,长治市,平顺县","leveltype":3,"citycode":"0355","zipcode":"047400","lng":113.43603,"lat":36.20005,"pinyin":"Pingshun","pinyin_short":"PS","pinyin_first":"P"},
    {"id":140426,"parentid":140400,"name":"黎城县","shortname":"黎城","mergername":"中国,山西省,长治市,黎城县","leveltype":3,"citycode":"0355","zipcode":"047600","lng":113.38766,"lat":36.50301,"pinyin":"Licheng","pinyin_short":"LC","pinyin_first":"L"},
    {"id":140427,"parentid":140400,"name":"壶关县","shortname":"壶关","mergername":"中国,山西省,长治市,壶关县","leveltype":3,"citycode":"0355","zipcode":"047300","lng":113.207,"lat":36.11301,"pinyin":"Huguan","pinyin_short":"HG","pinyin_first":"H"},
    {"id":140428,"parentid":140400,"name":"长子县","shortname":"长子","mergername":"中国,山西省,长治市,长子县","leveltype":3,"citycode":"0355","zipcode":"046600","lng":112.87731,"lat":36.12125,"pinyin":"Zhangzi","pinyin_short":"CZ","pinyin_first":"C"},
    {"id":140429,"parentid":140400,"name":"武乡县","shortname":"武乡","mergername":"中国,山西省,长治市,武乡县","leveltype":3,"citycode":"0355","zipcode":"046300","lng":112.86343,"lat":36.83687,"pinyin":"Wuxiang","pinyin_short":"WX","pinyin_first":"W"},
    {"id":140430,"parentid":140400,"name":"沁县","shortname":"沁县","mergername":"中国,山西省,长治市,沁县","leveltype":3,"citycode":"0355","zipcode":"046400","lng":112.69863,"lat":36.75628,"pinyin":"Qinxian","pinyin_short":"QX","pinyin_first":"Q"},
    {"id":140431,"parentid":140400,"name":"沁源县","shortname":"沁源","mergername":"中国,山西省,长治市,沁源县","leveltype":3,"citycode":"0355","zipcode":"046500","lng":112.33758,"lat":36.50008,"pinyin":"Qinyuan","pinyin_short":"QY","pinyin_first":"Q"},
    {"id":140481,"parentid":140400,"name":"潞城市","shortname":"潞城","mergername":"中国,山西省,长治市,潞城市","leveltype":3,"citycode":"0355","zipcode":"047500","lng":113.22888,"lat":36.33414,"pinyin":"Lucheng","pinyin_short":"LC","pinyin_first":"L"},
    {"id":140500,"parentid":140000,"name":"晋城市","shortname":"晋城","mergername":"中国,山西省,晋城市","leveltype":2,"citycode":"0356","zipcode":"048000","lng":112.851274,"lat":35.497553,"pinyin":"Jincheng","pinyin_short":"JC","pinyin_first":"J"},
    {"id":140502,"parentid":140500,"name":"城区","shortname":"城区","mergername":"中国,山西省,晋城市,城区","leveltype":3,"citycode":"0356","zipcode":"048000","lng":112.85319,"lat":35.50175,"pinyin":"Chengqu","pinyin_short":"CQ","pinyin_first":"C"},
    {"id":140521,"parentid":140500,"name":"沁水县","shortname":"沁水","mergername":"中国,山西省,晋城市,沁水县","leveltype":3,"citycode":"0356","zipcode":"048200","lng":112.1871,"lat":35.69102,"pinyin":"Qinshui","pinyin_short":"QS","pinyin_first":"Q"},
    {"id":140522,"parentid":140500,"name":"阳城县","shortname":"阳城","mergername":"中国,山西省,晋城市,阳城县","leveltype":3,"citycode":"0356","zipcode":"048100","lng":112.41485,"lat":35.48614,"pinyin":"Yangcheng","pinyin_short":"YC","pinyin_first":"Y"},
    {"id":140524,"parentid":140500,"name":"陵川县","shortname":"陵川","mergername":"中国,山西省,晋城市,陵川县","leveltype":3,"citycode":"0356","zipcode":"048300","lng":113.2806,"lat":35.77532,"pinyin":"Lingchuan","pinyin_short":"LC","pinyin_first":"L"},
    {"id":140525,"parentid":140500,"name":"泽州县","shortname":"泽州","mergername":"中国,山西省,晋城市,泽州县","leveltype":3,"citycode":"0356","zipcode":"048012","lng":112.83947,"lat":35.50789,"pinyin":"Zezhou","pinyin_short":"ZZ","pinyin_first":"Z"},
    {"id":140581,"parentid":140500,"name":"高平市","shortname":"高平","mergername":"中国,山西省,晋城市,高平市","leveltype":3,"citycode":"0356","zipcode":"048400","lng":112.92288,"lat":35.79705,"pinyin":"Gaoping","pinyin_short":"GP","pinyin_first":"G"},
    {"id":140600,"parentid":140000,"name":"朔州市","shortname":"朔州","mergername":"中国,山西省,朔州市","leveltype":2,"citycode":"0349","zipcode":"038500","lng":112.433387,"lat":39.331261,"pinyin":"Shuozhou","pinyin_short":"SZ","pinyin_first":"S"},
    {"id":140602,"parentid":140600,"name":"朔城区","shortname":"朔城","mergername":"中国,山西省,朔州市,朔城区","leveltype":3,"citycode":"0349","zipcode":"036000","lng":112.43189,"lat":39.31982,"pinyin":"Shuocheng","pinyin_short":"SC","pinyin_first":"S"},
    {"id":140603,"parentid":140600,"name":"平鲁区","shortname":"平鲁","mergername":"中国,山西省,朔州市,平鲁区","leveltype":3,"citycode":"0349","zipcode":"038600","lng":112.28833,"lat":39.51155,"pinyin":"Pinglu","pinyin_short":"PL","pinyin_first":"P"},
    {"id":140621,"parentid":140600,"name":"山阴县","shortname":"山阴","mergername":"中国,山西省,朔州市,山阴县","leveltype":3,"citycode":"0349","zipcode":"036900","lng":112.81662,"lat":39.52697,"pinyin":"Shanyin","pinyin_short":"SY","pinyin_first":"S"},
    {"id":140622,"parentid":140600,"name":"应县","shortname":"应县","mergername":"中国,山西省,朔州市,应县","leveltype":3,"citycode":"0349","zipcode":"037600","lng":113.19052,"lat":39.55279,"pinyin":"Yingxian","pinyin_short":"YX","pinyin_first":"Y"},
    {"id":140623,"parentid":140600,"name":"右玉县","shortname":"右玉","mergername":"中国,山西省,朔州市,右玉县","leveltype":3,"citycode":"0349","zipcode":"037200","lng":112.46902,"lat":39.99011,"pinyin":"Youyu","pinyin_short":"YY","pinyin_first":"Y"},
    {"id":140624,"parentid":140600,"name":"怀仁县","shortname":"怀仁","mergername":"中国,山西省,朔州市,怀仁县","leveltype":3,"citycode":"0349","zipcode":"038300","lng":113.10009,"lat":39.82806,"pinyin":"Huairen","pinyin_short":"HR","pinyin_first":"H"},
    {"id":140700,"parentid":140000,"name":"晋中市","shortname":"晋中","mergername":"中国,山西省,晋中市","leveltype":2,"citycode":"0354","zipcode":"030600","lng":112.736465,"lat":37.696495,"pinyin":"Jinzhong","pinyin_short":"JZ","pinyin_first":"J"},
    {"id":140702,"parentid":140700,"name":"榆次区","shortname":"榆次","mergername":"中国,山西省,晋中市,榆次区","leveltype":3,"citycode":"0354","zipcode":"030600","lng":112.70788,"lat":37.6978,"pinyin":"Yuci","pinyin_short":"YC","pinyin_first":"Y"},
    {"id":140721,"parentid":140700,"name":"榆社县","shortname":"榆社","mergername":"中国,山西省,晋中市,榆社县","leveltype":3,"citycode":"0354","zipcode":"031800","lng":112.97558,"lat":37.0721,"pinyin":"Yushe","pinyin_short":"YS","pinyin_first":"Y"},
    {"id":140722,"parentid":140700,"name":"左权县","shortname":"左权","mergername":"中国,山西省,晋中市,左权县","leveltype":3,"citycode":"0354","zipcode":"032600","lng":113.37918,"lat":37.08235,"pinyin":"Zuoquan","pinyin_short":"ZQ","pinyin_first":"Z"},
    {"id":140723,"parentid":140700,"name":"和顺县","shortname":"和顺","mergername":"中国,山西省,晋中市,和顺县","leveltype":3,"citycode":"0354","zipcode":"032700","lng":113.56988,"lat":37.32963,"pinyin":"Heshun","pinyin_short":"HS","pinyin_first":"H"},
    {"id":140724,"parentid":140700,"name":"昔阳县","shortname":"昔阳","mergername":"中国,山西省,晋中市,昔阳县","leveltype":3,"citycode":"0354","zipcode":"045300","lng":113.70517,"lat":37.61863,"pinyin":"Xiyang","pinyin_short":"XY","pinyin_first":"X"},
    {"id":140725,"parentid":140700,"name":"寿阳县","shortname":"寿阳","mergername":"中国,山西省,晋中市,寿阳县","leveltype":3,"citycode":"0354","zipcode":"045400","lng":113.17495,"lat":37.88899,"pinyin":"Shouyang","pinyin_short":"SY","pinyin_first":"S"},
    {"id":140726,"parentid":140700,"name":"太谷县","shortname":"太谷","mergername":"中国,山西省,晋中市,太谷县","leveltype":3,"citycode":"0354","zipcode":"030800","lng":112.55246,"lat":37.42161,"pinyin":"Taigu","pinyin_short":"TG","pinyin_first":"T"},
    {"id":140727,"parentid":140700,"name":"祁县","shortname":"祁县","mergername":"中国,山西省,晋中市,祁县","leveltype":3,"citycode":"0354","zipcode":"030900","lng":112.33358,"lat":37.3579,"pinyin":"Qixian","pinyin_short":"QX","pinyin_first":"Q"},
    {"id":140728,"parentid":140700,"name":"平遥县","shortname":"平遥","mergername":"中国,山西省,晋中市,平遥县","leveltype":3,"citycode":"0354","zipcode":"031100","lng":112.17553,"lat":37.1892,"pinyin":"Pingyao","pinyin_short":"PY","pinyin_first":"P"},
    {"id":140729,"parentid":140700,"name":"灵石县","shortname":"灵石","mergername":"中国,山西省,晋中市,灵石县","leveltype":3,"citycode":"0354","zipcode":"031300","lng":111.7774,"lat":36.84814,"pinyin":"Lingshi","pinyin_short":"LS","pinyin_first":"L"},
    {"id":140781,"parentid":140700,"name":"介休市","shortname":"介休","mergername":"中国,山西省,晋中市,介休市","leveltype":3,"citycode":"0354","zipcode":"032000","lng":111.91824,"lat":37.02771,"pinyin":"Jiexiu","pinyin_short":"JX","pinyin_first":"J"},
    {"id":140800,"parentid":140000,"name":"运城市","shortname":"运城","mergername":"中国,山西省,运城市","leveltype":2,"citycode":"0359","zipcode":"044000","lng":111.003957,"lat":35.022778,"pinyin":"Yuncheng","pinyin_short":"YC","pinyin_first":"Y"},
    {"id":140802,"parentid":140800,"name":"盐湖区","shortname":"盐湖","mergername":"中国,山西省,运城市,盐湖区","leveltype":3,"citycode":"0359","zipcode":"044000","lng":110.99827,"lat":35.0151,"pinyin":"Yanhu","pinyin_short":"YH","pinyin_first":"Y"},
    {"id":140821,"parentid":140800,"name":"临猗县","shortname":"临猗","mergername":"中国,山西省,运城市,临猗县","leveltype":3,"citycode":"0359","zipcode":"044100","lng":110.77432,"lat":35.14455,"pinyin":"Linyi","pinyin_short":"LY","pinyin_first":"L"},
    {"id":140822,"parentid":140800,"name":"万荣县","shortname":"万荣","mergername":"中国,山西省,运城市,万荣县","leveltype":3,"citycode":"0359","zipcode":"044200","lng":110.83657,"lat":35.41556,"pinyin":"Wanrong","pinyin_short":"WR","pinyin_first":"W"},
    {"id":140823,"parentid":140800,"name":"闻喜县","shortname":"闻喜","mergername":"中国,山西省,运城市,闻喜县","leveltype":3,"citycode":"0359","zipcode":"043800","lng":111.22265,"lat":35.35553,"pinyin":"Wenxi","pinyin_short":"WX","pinyin_first":"W"},
    {"id":140824,"parentid":140800,"name":"稷山县","shortname":"稷山","mergername":"中国,山西省,运城市,稷山县","leveltype":3,"citycode":"0359","zipcode":"043200","lng":110.97924,"lat":35.59993,"pinyin":"Jishan","pinyin_short":"JS","pinyin_first":"J"},
    {"id":140825,"parentid":140800,"name":"新绛县","shortname":"新绛","mergername":"中国,山西省,运城市,新绛县","leveltype":3,"citycode":"0359","zipcode":"043100","lng":111.22509,"lat":35.61566,"pinyin":"Xinjiang","pinyin_short":"XJ","pinyin_first":"X"},
    {"id":140826,"parentid":140800,"name":"绛县","shortname":"绛县","mergername":"中国,山西省,运城市,绛县","leveltype":3,"citycode":"0359","zipcode":"043600","lng":111.56668,"lat":35.49096,"pinyin":"Jiangxian","pinyin_short":"JX","pinyin_first":"J"},
    {"id":140827,"parentid":140800,"name":"垣曲县","shortname":"垣曲","mergername":"中国,山西省,运城市,垣曲县","leveltype":3,"citycode":"0359","zipcode":"043700","lng":111.67166,"lat":35.29923,"pinyin":"Yuanqu","pinyin_short":"YQ","pinyin_first":"Y"},
    {"id":140828,"parentid":140800,"name":"夏县","shortname":"夏县","mergername":"中国,山西省,运城市,夏县","leveltype":3,"citycode":"0359","zipcode":"044400","lng":111.21966,"lat":35.14121,"pinyin":"Xiaxian","pinyin_short":"XX","pinyin_first":"X"},
    {"id":140829,"parentid":140800,"name":"平陆县","shortname":"平陆","mergername":"中国,山西省,运城市,平陆县","leveltype":3,"citycode":"0359","zipcode":"044300","lng":111.21704,"lat":34.83772,"pinyin":"Pinglu","pinyin_short":"PL","pinyin_first":"P"},
    {"id":140830,"parentid":140800,"name":"芮城县","shortname":"芮城","mergername":"中国,山西省,运城市,芮城县","leveltype":3,"citycode":"0359","zipcode":"044600","lng":110.69455,"lat":34.69384,"pinyin":"Ruicheng","pinyin_short":"RC","pinyin_first":"R"},
    {"id":140881,"parentid":140800,"name":"永济市","shortname":"永济","mergername":"中国,山西省,运城市,永济市","leveltype":3,"citycode":"0359","zipcode":"044500","lng":110.44537,"lat":34.86556,"pinyin":"Yongji","pinyin_short":"YJ","pinyin_first":"Y"},
    {"id":140882,"parentid":140800,"name":"河津市","shortname":"河津","mergername":"中国,山西省,运城市,河津市","leveltype":3,"citycode":"0359","zipcode":"043300","lng":110.7116,"lat":35.59478,"pinyin":"Hejin","pinyin_short":"HJ","pinyin_first":"H"},
    {"id":140900,"parentid":140000,"name":"忻州市","shortname":"忻州","mergername":"中国,山西省,忻州市","leveltype":2,"citycode":"0350","zipcode":"034000","lng":112.733538,"lat":38.41769,"pinyin":"Xinzhou","pinyin_short":"XZ","pinyin_first":"X"},
    {"id":140902,"parentid":140900,"name":"忻府区","shortname":"忻府","mergername":"中国,山西省,忻州市,忻府区","leveltype":3,"citycode":"0350","zipcode":"034000","lng":112.74603,"lat":38.40414,"pinyin":"Xinfu","pinyin_short":"XF","pinyin_first":"X"},
    {"id":140921,"parentid":140900,"name":"定襄县","shortname":"定襄","mergername":"中国,山西省,忻州市,定襄县","leveltype":3,"citycode":"0350","zipcode":"035400","lng":112.95733,"lat":38.47387,"pinyin":"Dingxiang","pinyin_short":"DX","pinyin_first":"D"},
    {"id":140922,"parentid":140900,"name":"五台县","shortname":"五台","mergername":"中国,山西省,忻州市,五台县","leveltype":3,"citycode":"0350","zipcode":"035500","lng":113.25256,"lat":38.72774,"pinyin":"Wutai","pinyin_short":"WT","pinyin_first":"W"},
    {"id":140923,"parentid":140900,"name":"代县","shortname":"代县","mergername":"中国,山西省,忻州市,代县","leveltype":3,"citycode":"0350","zipcode":"034200","lng":112.95913,"lat":39.06717,"pinyin":"Daixian","pinyin_short":"DX","pinyin_first":"D"},
    {"id":140924,"parentid":140900,"name":"繁峙县","shortname":"繁峙","mergername":"中国,山西省,忻州市,繁峙县","leveltype":3,"citycode":"0350","zipcode":"034300","lng":113.26303,"lat":39.18886,"pinyin":"Fanshi","pinyin_short":"FZ","pinyin_first":"F"},
    {"id":140925,"parentid":140900,"name":"宁武县","shortname":"宁武","mergername":"中国,山西省,忻州市,宁武县","leveltype":3,"citycode":"0350","zipcode":"036700","lng":112.30423,"lat":39.00211,"pinyin":"Ningwu","pinyin_short":"NW","pinyin_first":"N"},
    {"id":140926,"parentid":140900,"name":"静乐县","shortname":"静乐","mergername":"中国,山西省,忻州市,静乐县","leveltype":3,"citycode":"0350","zipcode":"035100","lng":111.94158,"lat":38.3602,"pinyin":"Jingle","pinyin_short":"JL","pinyin_first":"J"},
    {"id":140927,"parentid":140900,"name":"神池县","shortname":"神池","mergername":"中国,山西省,忻州市,神池县","leveltype":3,"citycode":"0350","zipcode":"036100","lng":112.20541,"lat":39.09,"pinyin":"Shenchi","pinyin_short":"SC","pinyin_first":"S"},
    {"id":140928,"parentid":140900,"name":"五寨县","shortname":"五寨","mergername":"中国,山西省,忻州市,五寨县","leveltype":3,"citycode":"0350","zipcode":"036200","lng":111.8489,"lat":38.90757,"pinyin":"Wuzhai","pinyin_short":"WZ","pinyin_first":"W"},
    {"id":140929,"parentid":140900,"name":"岢岚县","shortname":"岢岚","mergername":"中国,山西省,忻州市,岢岚县","leveltype":3,"citycode":"0350","zipcode":"036300","lng":111.57388,"lat":38.70452,"pinyin":"Kelan","pinyin_short":"KL","pinyin_first":"K"},
    {"id":140930,"parentid":140900,"name":"河曲县","shortname":"河曲","mergername":"中国,山西省,忻州市,河曲县","leveltype":3,"citycode":"0350","zipcode":"036500","lng":111.13821,"lat":39.38439,"pinyin":"Hequ","pinyin_short":"HQ","pinyin_first":"H"},
    {"id":140931,"parentid":140900,"name":"保德县","shortname":"保德","mergername":"中国,山西省,忻州市,保德县","leveltype":3,"citycode":"0350","zipcode":"036600","lng":111.08656,"lat":39.02248,"pinyin":"Baode","pinyin_short":"BD","pinyin_first":"B"},
    {"id":140932,"parentid":140900,"name":"偏关县","shortname":"偏关","mergername":"中国,山西省,忻州市,偏关县","leveltype":3,"citycode":"0350","zipcode":"036400","lng":111.50863,"lat":39.43609,"pinyin":"Pianguan","pinyin_short":"PG","pinyin_first":"P"},
    {"id":140981,"parentid":140900,"name":"原平市","shortname":"原平","mergername":"中国,山西省,忻州市,原平市","leveltype":3,"citycode":"0350","zipcode":"034100","lng":112.70584,"lat":38.73181,"pinyin":"Yuanping","pinyin_short":"YP","pinyin_first":"Y"},
    {"id":141000,"parentid":140000,"name":"临汾市","shortname":"临汾","mergername":"中国,山西省,临汾市","leveltype":2,"citycode":"0357","zipcode":"041000","lng":111.517973,"lat":36.08415,"pinyin":"Linfen","pinyin_short":"LF","pinyin_first":"L"},
    {"id":141002,"parentid":141000,"name":"尧都区","shortname":"尧都","mergername":"中国,山西省,临汾市,尧都区","leveltype":3,"citycode":"0357","zipcode":"041000","lng":111.5787,"lat":36.08298,"pinyin":"Yaodu","pinyin_short":"YD","pinyin_first":"Y"},
    {"id":141021,"parentid":141000,"name":"曲沃县","shortname":"曲沃","mergername":"中国,山西省,临汾市,曲沃县","leveltype":3,"citycode":"0357","zipcode":"043400","lng":111.47525,"lat":35.64119,"pinyin":"Quwo","pinyin_short":"QW","pinyin_first":"Q"},
    {"id":141022,"parentid":141000,"name":"翼城县","shortname":"翼城","mergername":"中国,山西省,临汾市,翼城县","leveltype":3,"citycode":"0357","zipcode":"043500","lng":111.7181,"lat":35.73881,"pinyin":"Yicheng","pinyin_short":"YC","pinyin_first":"Y"},
    {"id":141023,"parentid":141000,"name":"襄汾县","shortname":"襄汾","mergername":"中国,山西省,临汾市,襄汾县","leveltype":3,"citycode":"0357","zipcode":"041500","lng":111.44204,"lat":35.87711,"pinyin":"Xiangfen","pinyin_short":"XF","pinyin_first":"X"},
    {"id":141024,"parentid":141000,"name":"洪洞县","shortname":"洪洞","mergername":"中国,山西省,临汾市,洪洞县","leveltype":3,"citycode":"0357","zipcode":"041600","lng":111.67501,"lat":36.25425,"pinyin":"Hongtong","pinyin_short":"HD","pinyin_first":"H"},
    {"id":141025,"parentid":141000,"name":"古县","shortname":"古县","mergername":"中国,山西省,临汾市,古县","leveltype":3,"citycode":"0357","zipcode":"042400","lng":111.92041,"lat":36.26688,"pinyin":"Guxian","pinyin_short":"GX","pinyin_first":"G"},
    {"id":141026,"parentid":141000,"name":"安泽县","shortname":"安泽","mergername":"中国,山西省,临汾市,安泽县","leveltype":3,"citycode":"0357","zipcode":"042500","lng":112.24981,"lat":36.14803,"pinyin":"Anze","pinyin_short":"AZ","pinyin_first":"A"},
    {"id":141027,"parentid":141000,"name":"浮山县","shortname":"浮山","mergername":"中国,山西省,临汾市,浮山县","leveltype":3,"citycode":"0357","zipcode":"042600","lng":111.84744,"lat":35.96854,"pinyin":"Fushan","pinyin_short":"FS","pinyin_first":"F"},
    {"id":141028,"parentid":141000,"name":"吉县","shortname":"吉县","mergername":"中国,山西省,临汾市,吉县","leveltype":3,"citycode":"0357","zipcode":"042200","lng":110.68148,"lat":36.09873,"pinyin":"Jixian","pinyin_short":"JX","pinyin_first":"J"},
    {"id":141029,"parentid":141000,"name":"乡宁县","shortname":"乡宁","mergername":"中国,山西省,临汾市,乡宁县","leveltype":3,"citycode":"0357","zipcode":"042100","lng":110.84652,"lat":35.97072,"pinyin":"Xiangning","pinyin_short":"XN","pinyin_first":"X"},
    {"id":141030,"parentid":141000,"name":"大宁县","shortname":"大宁","mergername":"中国,山西省,临汾市,大宁县","leveltype":3,"citycode":"0357","zipcode":"042300","lng":110.75216,"lat":36.46624,"pinyin":"Daning","pinyin_short":"DN","pinyin_first":"D"},
    {"id":141031,"parentid":141000,"name":"隰县","shortname":"隰县","mergername":"中国,山西省,临汾市,隰县","leveltype":3,"citycode":"0357","zipcode":"041300","lng":110.93881,"lat":36.69258,"pinyin":"Xixian","pinyin_short":"XX","pinyin_first":"X"},
    {"id":141032,"parentid":141000,"name":"永和县","shortname":"永和","mergername":"中国,山西省,临汾市,永和县","leveltype":3,"citycode":"0357","zipcode":"041400","lng":110.63168,"lat":36.7584,"pinyin":"Yonghe","pinyin_short":"YH","pinyin_first":"Y"},
    {"id":141033,"parentid":141000,"name":"蒲县","shortname":"蒲县","mergername":"中国,山西省,临汾市,蒲县","leveltype":3,"citycode":"0357","zipcode":"041200","lng":111.09674,"lat":36.41243,"pinyin":"Puxian","pinyin_short":"PX","pinyin_first":"P"},
    {"id":141034,"parentid":141000,"name":"汾西县","shortname":"汾西","mergername":"中国,山西省,临汾市,汾西县","leveltype":3,"citycode":"0357","zipcode":"031500","lng":111.56811,"lat":36.65063,"pinyin":"Fenxi","pinyin_short":"FX","pinyin_first":"F"},
    {"id":141081,"parentid":141000,"name":"侯马市","shortname":"侯马","mergername":"中国,山西省,临汾市,侯马市","leveltype":3,"citycode":"0357","zipcode":"043000","lng":111.37207,"lat":35.61903,"pinyin":"Houma","pinyin_short":"HM","pinyin_first":"H"},
    {"id":141082,"parentid":141000,"name":"霍州市","shortname":"霍州","mergername":"中国,山西省,临汾市,霍州市","leveltype":3,"citycode":"0357","zipcode":"031400","lng":111.755,"lat":36.5638,"pinyin":"Huozhou","pinyin_short":"HZ","pinyin_first":"H"},
    {"id":141100,"parentid":140000,"name":"吕梁市","shortname":"吕梁","mergername":"中国,山西省,吕梁市","leveltype":2,"citycode":"0358","zipcode":"033000","lng":111.134335,"lat":37.524366,"pinyin":"Lvliang","pinyin_short":"LL","pinyin_first":"L"},
    {"id":141102,"parentid":141100,"name":"离石区","shortname":"离石","mergername":"中国,山西省,吕梁市,离石区","leveltype":3,"citycode":"0358","zipcode":"033000","lng":111.15059,"lat":37.5177,"pinyin":"Lishi","pinyin_short":"LS","pinyin_first":"L"},
    {"id":141121,"parentid":141100,"name":"文水县","shortname":"文水","mergername":"中国,山西省,吕梁市,文水县","leveltype":3,"citycode":"0358","zipcode":"032100","lng":112.02829,"lat":37.43841,"pinyin":"Wenshui","pinyin_short":"WS","pinyin_first":"W"},
    {"id":141122,"parentid":141100,"name":"交城县","shortname":"交城","mergername":"中国,山西省,吕梁市,交城县","leveltype":3,"citycode":"0358","zipcode":"030500","lng":112.1585,"lat":37.5512,"pinyin":"Jiaocheng","pinyin_short":"JC","pinyin_first":"J"},
    {"id":141123,"parentid":141100,"name":"兴县","shortname":"兴县","mergername":"中国,山西省,吕梁市,兴县","leveltype":3,"citycode":"0358","zipcode":"033600","lng":111.12692,"lat":38.46321,"pinyin":"Xingxian","pinyin_short":"XX","pinyin_first":"X"},
    {"id":141124,"parentid":141100,"name":"临县","shortname":"临县","mergername":"中国,山西省,吕梁市,临县","leveltype":3,"citycode":"0358","zipcode":"033200","lng":110.99282,"lat":37.95271,"pinyin":"Linxian","pinyin_short":"LX","pinyin_first":"L"},
    {"id":141125,"parentid":141100,"name":"柳林县","shortname":"柳林","mergername":"中国,山西省,吕梁市,柳林县","leveltype":3,"citycode":"0358","zipcode":"033300","lng":110.88922,"lat":37.42932,"pinyin":"Liulin","pinyin_short":"LL","pinyin_first":"L"},
    {"id":141126,"parentid":141100,"name":"石楼县","shortname":"石楼","mergername":"中国,山西省,吕梁市,石楼县","leveltype":3,"citycode":"0358","zipcode":"032500","lng":110.8352,"lat":36.99731,"pinyin":"Shilou","pinyin_short":"SL","pinyin_first":"S"},
    {"id":141127,"parentid":141100,"name":"岚县","shortname":"岚县","mergername":"中国,山西省,吕梁市,岚县","leveltype":3,"citycode":"0358","zipcode":"033500","lng":111.67627,"lat":38.27874,"pinyin":"Lanxian","pinyin_short":"LX","pinyin_first":"L"},
    {"id":141128,"parentid":141100,"name":"方山县","shortname":"方山","mergername":"中国,山西省,吕梁市,方山县","leveltype":3,"citycode":"0358","zipcode":"033100","lng":111.24011,"lat":37.88979,"pinyin":"Fangshan","pinyin_short":"FS","pinyin_first":"F"},
    {"id":141129,"parentid":141100,"name":"中阳县","shortname":"中阳","mergername":"中国,山西省,吕梁市,中阳县","leveltype":3,"citycode":"0358","zipcode":"033400","lng":111.1795,"lat":37.35715,"pinyin":"Zhongyang","pinyin_short":"ZY","pinyin_first":"Z"},
    {"id":141130,"parentid":141100,"name":"交口县","shortname":"交口","mergername":"中国,山西省,吕梁市,交口县","leveltype":3,"citycode":"0358","zipcode":"032400","lng":111.18103,"lat":36.98213,"pinyin":"Jiaokou","pinyin_short":"JK","pinyin_first":"J"},
    {"id":141181,"parentid":141100,"name":"孝义市","shortname":"孝义","mergername":"中国,山西省,吕梁市,孝义市","leveltype":3,"citycode":"0358","zipcode":"032300","lng":111.77362,"lat":37.14414,"pinyin":"Xiaoyi","pinyin_short":"XY","pinyin_first":"X"},
    {"id":141182,"parentid":141100,"name":"汾阳市","shortname":"汾阳","mergername":"中国,山西省,吕梁市,汾阳市","leveltype":3,"citycode":"0358","zipcode":"032200","lng":111.7882,"lat":37.26605,"pinyin":"Fenyang","pinyin_short":"FY","pinyin_first":"F"},
    {"id":150000,"parentid":100000,"name":"内蒙古自治区","shortname":"内蒙古","mergername":"中国,内蒙古自治区","leveltype":1,"citycode":"","zipcode":"","lng":111.670801,"lat":40.818311,"pinyin":"Inner Mongolia","pinyin_short":"NMG","pinyin_first":"N"},
    {"id":150100,"parentid":150000,"name":"呼和浩特市","shortname":"呼和浩特","mergername":"中国,内蒙古自治区,呼和浩特市","leveltype":2,"citycode":"0471","zipcode":"010000","lng":111.670801,"lat":40.818311,"pinyin":"Hohhot","pinyin_short":"HHHT","pinyin_first":"H"},
    {"id":150102,"parentid":150100,"name":"新城区","shortname":"新城","mergername":"中国,内蒙古自治区,呼和浩特市,新城区","leveltype":3,"citycode":"0471","zipcode":"010050","lng":111.66554,"lat":40.85828,"pinyin":"Xincheng","pinyin_short":"XC","pinyin_first":"X"},
    {"id":150103,"parentid":150100,"name":"回民区","shortname":"回民","mergername":"中国,内蒙古自治区,呼和浩特市,回民区","leveltype":3,"citycode":"0471","zipcode":"010030","lng":111.62402,"lat":40.80827,"pinyin":"Huimin","pinyin_short":"HM","pinyin_first":"H"},
    {"id":150104,"parentid":150100,"name":"玉泉区","shortname":"玉泉","mergername":"中国,内蒙古自治区,呼和浩特市,玉泉区","leveltype":3,"citycode":"0471","zipcode":"010020","lng":111.67456,"lat":40.75227,"pinyin":"Yuquan","pinyin_short":"YQ","pinyin_first":"Y"},
    {"id":150105,"parentid":150100,"name":"赛罕区","shortname":"赛罕","mergername":"中国,内蒙古自治区,呼和浩特市,赛罕区","leveltype":3,"citycode":"0471","zipcode":"010020","lng":111.70224,"lat":40.79207,"pinyin":"Saihan","pinyin_short":"SH","pinyin_first":"S"},
    {"id":150121,"parentid":150100,"name":"土默特左旗","shortname":"土默特左旗","mergername":"中国,内蒙古自治区,呼和浩特市,土默特左旗","leveltype":3,"citycode":"0471","zipcode":"010100","lng":111.14898,"lat":40.72229,"pinyin":"Tumotezuoqi","pinyin_short":"TMTZQ","pinyin_first":"T"},
    {"id":150122,"parentid":150100,"name":"托克托县","shortname":"托克托","mergername":"中国,内蒙古自治区,呼和浩特市,托克托县","leveltype":3,"citycode":"0471","zipcode":"010200","lng":111.19101,"lat":40.27492,"pinyin":"Tuoketuo","pinyin_short":"TKT","pinyin_first":"T"},
    {"id":150123,"parentid":150100,"name":"和林格尔县","shortname":"和林格尔","mergername":"中国,内蒙古自治区,呼和浩特市,和林格尔县","leveltype":3,"citycode":"0471","zipcode":"011500","lng":111.82205,"lat":40.37892,"pinyin":"Helingeer","pinyin_short":"HLGE","pinyin_first":"H"},
    {"id":150124,"parentid":150100,"name":"清水河县","shortname":"清水河","mergername":"中国,内蒙古自治区,呼和浩特市,清水河县","leveltype":3,"citycode":"0471","zipcode":"011600","lng":111.68316,"lat":39.9097,"pinyin":"Qingshuihe","pinyin_short":"QSH","pinyin_first":"Q"},
    {"id":150125,"parentid":150100,"name":"武川县","shortname":"武川","mergername":"中国,内蒙古自治区,呼和浩特市,武川县","leveltype":3,"citycode":"0471","zipcode":"011700","lng":111.45785,"lat":41.09289,"pinyin":"Wuchuan","pinyin_short":"WC","pinyin_first":"W"},
    {"id":150200,"parentid":150000,"name":"包头市","shortname":"包头","mergername":"中国,内蒙古自治区,包头市","leveltype":2,"citycode":"0472","zipcode":"014025","lng":109.840405,"lat":40.658168,"pinyin":"Baotou","pinyin_short":"BT","pinyin_first":"B"},
    {"id":150202,"parentid":150200,"name":"东河区","shortname":"东河","mergername":"中国,内蒙古自治区,包头市,东河区","leveltype":3,"citycode":"0472","zipcode":"014040","lng":110.0462,"lat":40.58237,"pinyin":"Donghe","pinyin_short":"DH","pinyin_first":"D"},
    {"id":150203,"parentid":150200,"name":"昆都仑区","shortname":"昆都仑","mergername":"中国,内蒙古自治区,包头市,昆都仑区","leveltype":3,"citycode":"0472","zipcode":"014010","lng":109.83862,"lat":40.64175,"pinyin":"Kundulun","pinyin_short":"KDL","pinyin_first":"K"},
    {"id":150204,"parentid":150200,"name":"青山区","shortname":"青山","mergername":"中国,内蒙古自治区,包头市,青山区","leveltype":3,"citycode":"0472","zipcode":"014030","lng":109.90131,"lat":40.64329,"pinyin":"Qingshan","pinyin_short":"QS","pinyin_first":"Q"},
    {"id":150205,"parentid":150200,"name":"石拐区","shortname":"石拐","mergername":"中国,内蒙古自治区,包头市,石拐区","leveltype":3,"citycode":"0472","zipcode":"014070","lng":110.27322,"lat":40.67297,"pinyin":"Shiguai","pinyin_short":"SG","pinyin_first":"S"},
    {"id":150206,"parentid":150200,"name":"白云鄂博矿区","shortname":"白云鄂博矿区","mergername":"中国,内蒙古自治区,包头市,白云鄂博矿区","leveltype":3,"citycode":"0472","zipcode":"014080","lng":109.97367,"lat":41.76968,"pinyin":"Baiyunebokuangqu","pinyin_short":"BYEBKQ","pinyin_first":"B"},
    {"id":150207,"parentid":150200,"name":"九原区","shortname":"九原","mergername":"中国,内蒙古自治区,包头市,九原区","leveltype":3,"citycode":"0472","zipcode":"014060","lng":109.96496,"lat":40.60554,"pinyin":"Jiuyuan","pinyin_short":"JY","pinyin_first":"J"},
    {"id":150221,"parentid":150200,"name":"土默特右旗","shortname":"土默特右旗","mergername":"中国,内蒙古自治区,包头市,土默特右旗","leveltype":3,"citycode":"0472","zipcode":"014100","lng":110.52417,"lat":40.5688,"pinyin":"Tumoteyouqi","pinyin_short":"TMTYQ","pinyin_first":"T"},
    {"id":150222,"parentid":150200,"name":"固阳县","shortname":"固阳","mergername":"中国,内蒙古自治区,包头市,固阳县","leveltype":3,"citycode":"0472","zipcode":"014200","lng":110.06372,"lat":41.01851,"pinyin":"Guyang","pinyin_short":"GY","pinyin_first":"G"},
    {"id":150223,"parentid":150200,"name":"达尔罕茂明安联合旗","shortname":"达茂旗","mergername":"中国,内蒙古自治区,包头市,达尔罕茂明安联合旗","leveltype":3,"citycode":"0472","zipcode":"014500","lng":110.43258,"lat":41.69875,"pinyin":"Damaoqi","pinyin_short":"DMQ","pinyin_first":"D"},
    {"id":150300,"parentid":150000,"name":"乌海市","shortname":"乌海","mergername":"中国,内蒙古自治区,乌海市","leveltype":2,"citycode":"0473","zipcode":"016000","lng":106.825563,"lat":39.673734,"pinyin":"Wuhai","pinyin_short":"WH","pinyin_first":"W"},
    {"id":150302,"parentid":150300,"name":"海勃湾区","shortname":"海勃湾","mergername":"中国,内蒙古自治区,乌海市,海勃湾区","leveltype":3,"citycode":"0473","zipcode":"016000","lng":106.8222,"lat":39.66955,"pinyin":"Haibowan","pinyin_short":"HBW","pinyin_first":"H"},
    {"id":150303,"parentid":150300,"name":"海南区","shortname":"海南","mergername":"中国,内蒙古自治区,乌海市,海南区","leveltype":3,"citycode":"0473","zipcode":"016030","lng":106.88656,"lat":39.44128,"pinyin":"Hainan","pinyin_short":"HN","pinyin_first":"H"},
    {"id":150304,"parentid":150300,"name":"乌达区","shortname":"乌达","mergername":"中国,内蒙古自治区,乌海市,乌达区","leveltype":3,"citycode":"0473","zipcode":"016040","lng":106.72723,"lat":39.505,"pinyin":"Wuda","pinyin_short":"WD","pinyin_first":"W"},
    {"id":150400,"parentid":150000,"name":"赤峰市","shortname":"赤峰","mergername":"中国,内蒙古自治区,赤峰市","leveltype":2,"citycode":"0476","zipcode":"024000","lng":118.956806,"lat":42.275317,"pinyin":"Chifeng","pinyin_short":"CF","pinyin_first":"C"},
    {"id":150402,"parentid":150400,"name":"红山区","shortname":"红山","mergername":"中国,内蒙古自治区,赤峰市,红山区","leveltype":3,"citycode":"0476","zipcode":"024020","lng":118.95755,"lat":42.24312,"pinyin":"Hongshan","pinyin_short":"HS","pinyin_first":"H"},
    {"id":150403,"parentid":150400,"name":"元宝山区","shortname":"元宝山","mergername":"中国,内蒙古自治区,赤峰市,元宝山区","leveltype":3,"citycode":"0476","zipcode":"024076","lng":119.28921,"lat":42.04005,"pinyin":"Yuanbaoshan","pinyin_short":"YBS","pinyin_first":"Y"},
    {"id":150404,"parentid":150400,"name":"松山区","shortname":"松山","mergername":"中国,内蒙古自治区,赤峰市,松山区","leveltype":3,"citycode":"0476","zipcode":"024005","lng":118.9328,"lat":42.28613,"pinyin":"Songshan","pinyin_short":"SS","pinyin_first":"S"},
    {"id":150421,"parentid":150400,"name":"阿鲁科尔沁旗","shortname":"阿鲁科尔沁旗","mergername":"中国,内蒙古自治区,赤峰市,阿鲁科尔沁旗","leveltype":3,"citycode":"0476","zipcode":"025550","lng":120.06527,"lat":43.87988,"pinyin":"Alukeerqinqi","pinyin_short":"ALKEQQ","pinyin_first":"A"},
    {"id":150422,"parentid":150400,"name":"巴林左旗","shortname":"巴林左旗","mergername":"中国,内蒙古自治区,赤峰市,巴林左旗","leveltype":3,"citycode":"0476","zipcode":"025450","lng":119.38012,"lat":43.97031,"pinyin":"Balinzuoqi","pinyin_short":"BLZQ","pinyin_first":"B"},
    {"id":150423,"parentid":150400,"name":"巴林右旗","shortname":"巴林右旗","mergername":"中国,内蒙古自治区,赤峰市,巴林右旗","leveltype":3,"citycode":"0476","zipcode":"025150","lng":118.66461,"lat":43.53387,"pinyin":"Balinyouqi","pinyin_short":"BLYQ","pinyin_first":"B"},
    {"id":150424,"parentid":150400,"name":"林西县","shortname":"林西","mergername":"中国,内蒙古自治区,赤峰市,林西县","leveltype":3,"citycode":"0476","zipcode":"025250","lng":118.04733,"lat":43.61165,"pinyin":"Linxi","pinyin_short":"LX","pinyin_first":"L"},
    {"id":150425,"parentid":150400,"name":"克什克腾旗","shortname":"克什克腾旗","mergername":"中国,内蒙古自治区,赤峰市,克什克腾旗","leveltype":3,"citycode":"0476","zipcode":"025350","lng":117.54562,"lat":43.26501,"pinyin":"Keshiketengqi","pinyin_short":"KSKTQ","pinyin_first":"K"},
    {"id":150426,"parentid":150400,"name":"翁牛特旗","shortname":"翁牛特旗","mergername":"中国,内蒙古自治区,赤峰市,翁牛特旗","leveltype":3,"citycode":"0476","zipcode":"024500","lng":119.03042,"lat":42.93147,"pinyin":"Wengniuteqi","pinyin_short":"WNTQ","pinyin_first":"W"},
    {"id":150428,"parentid":150400,"name":"喀喇沁旗","shortname":"喀喇沁旗","mergername":"中国,内蒙古自治区,赤峰市,喀喇沁旗","leveltype":3,"citycode":"0476","zipcode":"024400","lng":118.70144,"lat":41.92917,"pinyin":"Kalaqinqi","pinyin_short":"KLQQ","pinyin_first":"K"},
    {"id":150429,"parentid":150400,"name":"宁城县","shortname":"宁城","mergername":"中国,内蒙古自治区,赤峰市,宁城县","leveltype":3,"citycode":"0476","zipcode":"024200","lng":119.34375,"lat":41.59661,"pinyin":"Ningcheng","pinyin_short":"NC","pinyin_first":"N"},
    {"id":150430,"parentid":150400,"name":"敖汉旗","shortname":"敖汉旗","mergername":"中国,内蒙古自治区,赤峰市,敖汉旗","leveltype":3,"citycode":"0476","zipcode":"024300","lng":119.92163,"lat":42.29071,"pinyin":"Aohanqi","pinyin_short":"AHQ","pinyin_first":"A"},
    {"id":150500,"parentid":150000,"name":"通辽市","shortname":"通辽","mergername":"中国,内蒙古自治区,通辽市","leveltype":2,"citycode":"0475","zipcode":"028000","lng":122.263119,"lat":43.617429,"pinyin":"Tongliao","pinyin_short":"TL","pinyin_first":"T"},
    {"id":150502,"parentid":150500,"name":"科尔沁区","shortname":"科尔沁","mergername":"中国,内蒙古自治区,通辽市,科尔沁区","leveltype":3,"citycode":"0475","zipcode":"028000","lng":122.25573,"lat":43.62257,"pinyin":"Keerqin","pinyin_short":"KEQ","pinyin_first":"K"},
    {"id":150521,"parentid":150500,"name":"科尔沁左翼中旗","shortname":"科尔沁左翼中旗","mergername":"中国,内蒙古自治区,通辽市,科尔沁左翼中旗","leveltype":3,"citycode":"0475","zipcode":"029300","lng":123.31912,"lat":44.13014,"pinyin":"Keerqinzuoyizhongqi","pinyin_short":"KEQZYZQ","pinyin_first":"K"},
    {"id":150522,"parentid":150500,"name":"科尔沁左翼后旗","shortname":"科尔沁左翼后旗","mergername":"中国,内蒙古自治区,通辽市,科尔沁左翼后旗","leveltype":3,"citycode":"0475","zipcode":"028100","lng":122.35745,"lat":42.94897,"pinyin":"Keerqinzuoyihouqi","pinyin_short":"KEQZYHQ","pinyin_first":"K"},
    {"id":150523,"parentid":150500,"name":"开鲁县","shortname":"开鲁","mergername":"中国,内蒙古自治区,通辽市,开鲁县","leveltype":3,"citycode":"0475","zipcode":"028400","lng":121.31884,"lat":43.60003,"pinyin":"Kailu","pinyin_short":"KL","pinyin_first":"K"},
    {"id":150524,"parentid":150500,"name":"库伦旗","shortname":"库伦旗","mergername":"中国,内蒙古自治区,通辽市,库伦旗","leveltype":3,"citycode":"0475","zipcode":"028200","lng":121.776,"lat":42.72998,"pinyin":"Kulunqi","pinyin_short":"KLQ","pinyin_first":"K"},
    {"id":150525,"parentid":150500,"name":"奈曼旗","shortname":"奈曼旗","mergername":"中国,内蒙古自治区,通辽市,奈曼旗","leveltype":3,"citycode":"0475","zipcode":"028300","lng":120.66348,"lat":42.84527,"pinyin":"Naimanqi","pinyin_short":"NMQ","pinyin_first":"N"},
    {"id":150526,"parentid":150500,"name":"扎鲁特旗","shortname":"扎鲁特旗","mergername":"中国,内蒙古自治区,通辽市,扎鲁特旗","leveltype":3,"citycode":"0475","zipcode":"029100","lng":120.91507,"lat":44.55592,"pinyin":"Zhaluteqi","pinyin_short":"ZLTQ","pinyin_first":"Z"},
    {"id":150581,"parentid":150500,"name":"霍林郭勒市","shortname":"霍林郭勒","mergername":"中国,内蒙古自治区,通辽市,霍林郭勒市","leveltype":3,"citycode":"0475","zipcode":"029200","lng":119.65429,"lat":45.53454,"pinyin":"Huolinguole","pinyin_short":"HLGL","pinyin_first":"H"},
    {"id":150600,"parentid":150000,"name":"鄂尔多斯市","shortname":"鄂尔多斯","mergername":"中国,内蒙古自治区,鄂尔多斯市","leveltype":2,"citycode":"0477","zipcode":"017004","lng":109.99029,"lat":39.817179,"pinyin":"Ordos","pinyin_short":"EEDS","pinyin_first":"E"},
    {"id":150602,"parentid":150600,"name":"东胜区","shortname":"东胜","mergername":"中国,内蒙古自治区,鄂尔多斯市,东胜区","leveltype":3,"citycode":"0477","zipcode":"017000","lng":109.96289,"lat":39.82236,"pinyin":"Dongsheng","pinyin_short":"DS","pinyin_first":"D"},
    {"id":150621,"parentid":150600,"name":"达拉特旗","shortname":"达拉特旗","mergername":"中国,内蒙古自治区,鄂尔多斯市,达拉特旗","leveltype":3,"citycode":"0477","zipcode":"014300","lng":110.03317,"lat":40.4001,"pinyin":"Dalateqi","pinyin_short":"DLTQ","pinyin_first":"D"},
    {"id":150622,"parentid":150600,"name":"准格尔旗","shortname":"准格尔旗","mergername":"中国,内蒙古自治区,鄂尔多斯市,准格尔旗","leveltype":3,"citycode":"0477","zipcode":"017100","lng":111.23645,"lat":39.86783,"pinyin":"Zhungeerqi","pinyin_short":"ZGEQ","pinyin_first":"Z"},
    {"id":150623,"parentid":150600,"name":"鄂托克前旗","shortname":"鄂托克前旗","mergername":"中国,内蒙古自治区,鄂尔多斯市,鄂托克前旗","leveltype":3,"citycode":"0477","zipcode":"016200","lng":107.48403,"lat":38.18396,"pinyin":"Etuokeqianqi","pinyin_short":"ETKQQ","pinyin_first":"E"},
    {"id":150624,"parentid":150600,"name":"鄂托克旗","shortname":"鄂托克旗","mergername":"中国,内蒙古自治区,鄂尔多斯市,鄂托克旗","leveltype":3,"citycode":"0477","zipcode":"016100","lng":107.98226,"lat":39.09456,"pinyin":"Etuokeqi","pinyin_short":"ETKQ","pinyin_first":"E"},
    {"id":150625,"parentid":150600,"name":"杭锦旗","shortname":"杭锦旗","mergername":"中国,内蒙古自治区,鄂尔多斯市,杭锦旗","leveltype":3,"citycode":"0477","zipcode":"017400","lng":108.72934,"lat":39.84023,"pinyin":"Hangjinqi","pinyin_short":"HJQ","pinyin_first":"H"},
    {"id":150626,"parentid":150600,"name":"乌审旗","shortname":"乌审旗","mergername":"中国,内蒙古自治区,鄂尔多斯市,乌审旗","leveltype":3,"citycode":"0477","zipcode":"017300","lng":108.8461,"lat":38.59092,"pinyin":"Wushenqi","pinyin_short":"WSQ","pinyin_first":"W"},
    {"id":150627,"parentid":150600,"name":"伊金霍洛旗","shortname":"伊金霍洛旗","mergername":"中国,内蒙古自治区,鄂尔多斯市,伊金霍洛旗","leveltype":3,"citycode":"0477","zipcode":"017200","lng":109.74908,"lat":39.57393,"pinyin":"Yijinhuoluoqi","pinyin_short":"YJHLQ","pinyin_first":"Y"},
    {"id":150700,"parentid":150000,"name":"呼伦贝尔市","shortname":"呼伦贝尔","mergername":"中国,内蒙古自治区,呼伦贝尔市","leveltype":2,"citycode":"0470","zipcode":"021008","lng":119.758168,"lat":49.215333,"pinyin":"Hulunber","pinyin_short":"HLBE","pinyin_first":"H"},
    {"id":150702,"parentid":150700,"name":"海拉尔区","shortname":"海拉尔","mergername":"中国,内蒙古自治区,呼伦贝尔市,海拉尔区","leveltype":3,"citycode":"0470","zipcode":"021000","lng":119.7364,"lat":49.2122,"pinyin":"Hailaer","pinyin_short":"HLE","pinyin_first":"H"},
    {"id":150703,"parentid":150700,"name":"扎赉诺尔区","shortname":"扎赉诺尔","mergername":"中国,内蒙古自治区,呼伦贝尔市,扎赉诺尔区","leveltype":3,"citycode":"0470","zipcode":"021410","lng":117.792702,"lat":49.486943,"pinyin":"Zhalainuoer","pinyin_short":"ZLNE","pinyin_first":"Z"},
    {"id":150721,"parentid":150700,"name":"阿荣旗","shortname":"阿荣旗","mergername":"中国,内蒙古自治区,呼伦贝尔市,阿荣旗","leveltype":3,"citycode":"0470","zipcode":162750,"lng":123.45941,"lat":48.12581,"pinyin":"Arongqi","pinyin_short":"ARQ","pinyin_first":"A"},
    {"id":150722,"parentid":150700,"name":"莫力达瓦达斡尔族自治旗","shortname":"莫旗","mergername":"中国,内蒙古自治区,呼伦贝尔市,莫力达瓦达斡尔族自治旗","leveltype":3,"citycode":"0470","zipcode":162850,"lng":124.51498,"lat":48.48055,"pinyin":"Moqi","pinyin_short":"MQ","pinyin_first":"M"},
    {"id":150723,"parentid":150700,"name":"鄂伦春自治旗","shortname":"鄂伦春","mergername":"中国,内蒙古自治区,呼伦贝尔市,鄂伦春自治旗","leveltype":3,"citycode":"0470","zipcode":165450,"lng":123.72604,"lat":50.59777,"pinyin":"Elunchun","pinyin_short":"ELC","pinyin_first":"E"},
    {"id":150724,"parentid":150700,"name":"鄂温克族自治旗","shortname":"鄂温","mergername":"中国,内蒙古自治区,呼伦贝尔市,鄂温克族自治旗","leveltype":3,"citycode":"0470","zipcode":"021100","lng":119.7565,"lat":49.14284,"pinyin":"Ewen","pinyin_short":"EW","pinyin_first":"E"},
    {"id":150725,"parentid":150700,"name":"陈巴尔虎旗","shortname":"陈巴尔虎旗","mergername":"中国,内蒙古自治区,呼伦贝尔市,陈巴尔虎旗","leveltype":3,"citycode":"0470","zipcode":"021500","lng":119.42434,"lat":49.32684,"pinyin":"Chenbaerhuqi","pinyin_short":"CBEHQ","pinyin_first":"C"},
    {"id":150726,"parentid":150700,"name":"新巴尔虎左旗","shortname":"新巴尔虎左旗","mergername":"中国,内蒙古自治区,呼伦贝尔市,新巴尔虎左旗","leveltype":3,"citycode":"0470","zipcode":"021200","lng":118.26989,"lat":48.21842,"pinyin":"Xinbaerhuzuoqi","pinyin_short":"XBEHZQ","pinyin_first":"X"},
    {"id":150727,"parentid":150700,"name":"新巴尔虎右旗","shortname":"新巴尔虎右旗","mergername":"中国,内蒙古自治区,呼伦贝尔市,新巴尔虎右旗","leveltype":3,"citycode":"0470","zipcode":"021300","lng":116.82366,"lat":48.66473,"pinyin":"Xinbaerhuyouqi","pinyin_short":"XBEHYQ","pinyin_first":"X"},
    {"id":150781,"parentid":150700,"name":"满洲里市","shortname":"满洲里","mergername":"中国,内蒙古自治区,呼伦贝尔市,满洲里市","leveltype":3,"citycode":"0470","zipcode":"021400","lng":117.47946,"lat":49.58272,"pinyin":"Manzhouli","pinyin_short":"MZL","pinyin_first":"M"},
    {"id":150782,"parentid":150700,"name":"牙克石市","shortname":"牙克石","mergername":"中国,内蒙古自治区,呼伦贝尔市,牙克石市","leveltype":3,"citycode":"0470","zipcode":"022150","lng":120.7117,"lat":49.2856,"pinyin":"Yakeshi","pinyin_short":"YKS","pinyin_first":"Y"},