{
	"type": "FeatureCollection",
	"name": "镇",
	"crs": {
		"type": "name",
		"properties": {
			"name": "urn:ogc:def:crs:OGC:1.3:CRS84"
		}
	},
	"features": [
		{
			"type": "Feature",
			"properties": {
				"gml_id": "layer_town_pt.31143",
				"Name": "面达乡",
				"pyname": "mdx",
				"mapid": "483711",
				"kind": "BB84",
				"display_x": "97.28625",
				"display_y": "32.06852"
			},
			"geometry": {
				"type": "Point",
				"coordinates": [
					97.2857007,
					32.07082662
				]
			}
		},
		{
			"type": "Feature",
			"properties": {
				"gml_id": "layer_town_pt.31168",
				"Name": "木塔乡",
				"pyname": "mtx",
				"mapid": "483542",
				"kind": "BB84",
				"display_x": "95.09408",
				"display_y": "32.32332"
			},
			"geometry": {
				"type": "Point",
				"coordinates": [
					95.0927949,
					32.32555686
				]
			}
		},
		{
			"type": "Feature",
			"properties": {
				"gml_id": "layer_town_pt.31362",
				"Name": "布塔乡",
				"pyname": "btx",
				"mapid": "483522",
				"kind": "BB84",
				"display_x": "95.26345",
				"display_y": "32.19729"
			},
			"geometry": {
				"type": "Point",
				"coordinates": [
					95.26233366,
					32.19966513
				]
			}
		},
		{
			"type": "Feature",
			"properties": {
				"gml_id": "layer_town_pt.38380",
				"Name": "岩比乡",
				"pyname": "ybx",
				"mapid": "473816",
				"kind": "BB84",
				"display_x": "98.79608",
				"display_y": "31.45525"
			},
			"geometry": {
				"type": "Point",
				"coordinates": [
					98.79546168,
					31.4575286
				]
			}
		},
		{
			"type": "Feature",
			"properties": {
				"gml_id": "layer_town_pt.39308",
				"Name": "索多西乡",
				"pyname": "sdxx",
				"mapid": "443910",
				"kind": "BB84",
				"display_x": "99.05815",
				"display_y": "29.44934"
			},
			"geometry": {
				"type": "Point",
				"coordinates": [
					99.05714226,
					29.45201009
				]
			}
		},
		{
			"type": "Feature",
			"properties": {
				"gml_id": "layer_town_pt.39867",
				"Name": "岗托镇",
				"pyname": "gtz",
				"mapid": "473834",
				"kind": "BB84",
				"display_x": "98.5856",
				"display_y": "31.63016"
			},
			"geometry": {
				"type": "Point",
				"coordinates": [
					98.5852638,
					31.63255281
				]
			}
		},
		{
			"type": "Feature",
			"properties": {
				"gml_id": "layer_town_pt.40515",
				"Name": "克日乡",
				"pyname": "krx",
				"mapid": "463826",
				"kind": "BB84",
				"display_x": "98.83475",
				"display_y": "30.85402"
			},
			"geometry": {
				"type": "Point",
				"coordinates": [
					98.83419174,
					30.85663991
				]
			}
		},
		{
			"type": "Feature",
			"properties": {
				"gml_id": "layer_town_pt.40764",
				"Name": "波罗乡",
				"pyname": "blx",
				"mapid": "463864",
				"kind": "BB84",
				"display_x": "98.59795",
				"display_y": "31.19116"
			},
			"geometry": {
				"type": "Point",
				"coordinates": [
					98.59763682,
					31.19367447
				]
			}
		},
		{
			"type": "Feature",
			"properties": {
				"gml_id": "layer_town_pt.40918",
				"Name": "木协乡",
				"pyname": "mxx",
				"mapid": "453847",
				"kind": "BB84",
				"display_x": "98.89138",
				"display_y": "30.40651"
			},
			"geometry": {
				"type": "Point",
				"coordinates": [
					98.89087698,
					30.40938797
				]
			}
		},
		{
			"type": "Feature",
			"properties": {
				"gml_id": "layer_town_pt.40955",
				"Name": "邓柯乡",
				"pyname": "dkx",
				"mapid": "483757",
				"kind": "BB84",
				"display_x": "97.98271",
				"display_y": "32.46175"
			},
			"geometry": {
				"type": "Point",
				"coordinates": [
					97.9822836,
					32.46415776
				]
			}
		},
		{
			"type": "Feature",
			"properties": {
				"gml_id": "layer_town_pt.41109",
				"Name": "汪布顶乡",
				"pyname": "wbdx",
				"mapid": "473863",
				"kind": "BB84",
				"display_x": "98.42588",
				"display_y": "31.93004"
			},
			"geometry": {
				"type": "Point",
				"coordinates": [
					98.42521536,
					31.93215345
				]
			}
		},
		{
			"type": "Feature",
			"properties": {
				"gml_id": "layer_town_pt.42071",
				"Name": "敏都乡",
				"pyname": "mdx",
				"mapid": "453867",
				"kind": "BB84",
				"display_x": "98.90645",
				"display_y": "30.56842"
			},
			"geometry": {
				"type": "Point",
				"coordinates": [
					98.90593074,
					30.57125427
				]
			}
		},
		{
			"type": "Feature",
			"properties": {
				"gml_id": "layer_town_pt.42097",
				"Name": "沙东乡",
				"pyname": "sdx",
				"mapid": "453877",
				"kind": "BB84",
				"display_x": "98.90566",
				"display_y": "30.60396"
			},
			"geometry": {
				"type": "Point",
				"coordinates": [
					98.90513946,
					30.60677975
				]
			}
		},
		{
			"type": "Feature",
			"properties": {
				"gml_id": "layer_town_pt.42641",
				"Name": "雄松乡",
				"pyname": "xsx",
				"mapid": "453867",
				"kind": "BB84",
				"display_x": "98.91329",
				"display_y": "30.49919"
			},
			"geometry": {
				"type": "Point",
				"coordinates": [
					98.91276372,
					30.50204373
				]
			}
		},
		{
			"type": "Feature",
			"properties": {
				"gml_id": "layer_town_pt.44236",
				"Name": "桑多乡",
				"pyname": "sdx",
				"mapid": "463566",
				"kind": "BB84",
				"display_x": "95.80685",
				"display_y": "31.21239"
			},
			"geometry": {
				"type": "Point",
				"coordinates": [
					95.8060566,
					31.2148089
				]
			}
		},
		{
			"type": "Feature",
			"properties": {
				"gml_id": "layer_town_pt.44237",
				"Name": "紫金乡",
				"pyname": "zjx",
				"mapid": "432934",
				"kind": "BB84",
				"display_x": "89.55455",
				"display_y": "28.93008"
			},
			"geometry": {
				"type": "Point",
				"coordinates": [
					89.55252,
					28.93352175
				]
			}
		},
		{
			"type": "Feature",
			"properties": {
				"gml_id": "layer_town_pt.44238",
				"Name": "绒辖乡",
				"pyname": "rxx",
				"mapid": "422624",
				"kind": "BB84",
				"display_x": "86.34435",
				"display_y": "28.05321"
			},
			"geometry": {
				"type": "Point",
				"coordinates": [
					86.34217662,
					28.05673793
				]
			}
		},
		{
			"type": "Feature",
			"properties": {
				"gml_id": "layer_town_pt.44239",
				"Name": "阿秀乡",
				"pyname": "axx",
				"mapid": "483313",
				"kind": "BB84",
				"display_x": "93.42044",
				"display_y": "32.08565"
			},
			"geometry": {
				"type": "Point",
				"coordinates": [
					93.4188579,
					32.08787051
				]
			}
		},
		{
			"type": "Feature",
			"properties": {
				"gml_id": "layer_town_pt.44240",
				"Name": "普当乡",
				"pyname": "pdx",
				"mapid": "442970",
				"kind": "BB84",
				"display_x": "89.10915",
				"display_y": "29.94858"
			},
			"geometry": {
				"type": "Point",
				"coordinates": [
					89.10661914,
					29.95124063
				]
			}
		},
		{
			"type": "Feature",
			"properties": {
				"gml_id": "layer_town_pt.44241",
				"Name": "肯通乡",
				"pyname": "ktx",
				"mapid": "463725",
				"kind": "BB84",
				"display_x": "97.71881",
				"display_y": "30.90016"
			},
			"geometry": {
				"type": "Point",
				"coordinates": [
					97.7183226,
					30.90268845
				]
			}
		},
		{
			"type": "Feature",
			"properties": {
				"gml_id": "layer_town_pt.44242",
				"Name": "南伊珞巴民族乡",
				"pyname": "nylbmzx",
				"mapid": "433461",
				"kind": "BB84",
				"display_x": "94.19595",
				"display_y": "29.18564"
			},
			"geometry": {
				"type": "Point",
				"coordinates": [
					94.1948253,
					29.18864849
				]
			}
		},
		{
			"type": "Feature",
			"properties": {
				"gml_id": "layer_town_pt.44243",
				"Name": "艾玛乡",
				"pyname": "amx",
				"mapid": "442901",
				"kind": "BB84",
				"display_x": "89.18163",
				"display_y": "29.39163"
			},
			"geometry": {
				"type": "Point",
				"coordinates": [
					89.17922592,
					29.3945139
				]
			}
		},
		{
			"type": "Feature",
			"properties": {
				"gml_id": "layer_town_pt.44244",
				"Name": "古荣乡",
				"pyname": "grx",
				"mapid": "443046",
				"kind": "BB84",
				"display_x": "90.80049",
				"display_y": "29.74576"
			},
			"geometry": {
				"type": "Point",
				"coordinates": [
					90.79914006,
					29.74863326
				]
			}
		},
		{
			"type": "Feature",
			"properties": {
				"gml_id": "layer_town_pt.44245",
				"Name": "旦嘎乡",
				"pyname": "dgx",
				"mapid": "432566",
				"kind": "BB84",
				"display_x": "85.85113",
				"display_y": "29.23524"
			},
			"geometry": {
				"type": "Point",
				"coordinates": [
					85.84903476,
					29.23846965
				]
			}
		},
		{
			"type": "Feature",
			"properties": {
				"gml_id": "layer_town_pt.44246",
				"Name": "扎雪乡",
				"pyname": "zxx",
				"mapid": "453106",
				"kind": "BB84",
				"display_x": "91.76014",
				"display_y": "30.07717"
			},
			"geometry": {
				"type": "Point",
				"coordinates": [
					91.75884822,
					30.07997969
				]
			}
		},
		{
			"type": "Feature",
			"properties": {
				"gml_id": "layer_town_pt.44247",
				"Name": "伦布雪乡",
				"pyname": "lbxx",
				"mapid": "433120",
				"kind": "BB84",
				"display_x": "91.01302",
				"display_y": "28.84199"
			},
			"geometry": {
				"type": "Point",
				"coordinates": [
					91.0116072,
					28.84530411
				]
			}
		},
		{
			"type": "Feature",
			"properties": {
				"gml_id": "layer_town_pt.44248",
				"Name": "洛尼乡",
				"pyname": "lnx",
				"mapid": "443864",
				"kind": "BB84",
				"display_x": "98.61021",
				"display_y": "29.85549"
			},
			"geometry": {
				"type": "Point",
				"coordinates": [
					98.60992218,
					29.85839771
				]
			}
		},
		{
			"type": "Feature",
			"properties": {
				"gml_id": "layer_town_pt.44249",
				"Name": "工卡镇",
				"pyname": "gkz",
				"mapid": "443165",
				"kind": "BB84",
				"display_x": "91.72818",
				"display_y": "29.83352"
			},
			"geometry": {
				"type": "Point",
				"coordinates": [
					91.72689966,
					29.8363496
				]
			}
		},
		{
			"type": "Feature",
			"properties": {
				"gml_id": "layer_town_pt.44250",
				"Name": "边角林乡",
				"pyname": "bjlx",
				"mapid": "443153",
				"kind": "BB84",
				"display_x": "91.43776",
				"display_y": "29.80506"
			},
			"geometry": {
				"type": "Point",
				"coordinates": [
					91.43618292,
					29.80771704
				]
			}
		},
		{
			"type": "Feature",
			"properties": {
				"gml_id": "layer_town_pt.44251",
				"Name": "宁中乡",
				"pyname": "nzx",
				"mapid": "453047",
				"kind": "BB84",
				"display_x": "90.91358",
				"display_y": "30.37541"
			},
			"geometry": {
				"type": "Point",
				"coordinates": [
					90.91237518,
					30.37839138
				]
			}
		},
		{
			"type": "Feature",
			"properties": {
				"gml_id": "layer_town_pt.44252",
				"Name": "南木乡",
				"pyname": "nmx",
				"mapid": "443017",
				"kind": "BB84",
				"display_x": "90.91435",
				"display_y": "29.42054"
			},
			"geometry": {
				"type": "Point",
				"coordinates": [
					90.91316124,
					29.42364641
				]
			}
		},
		{
			"type": "Feature",
			"properties": {
				"gml_id": "layer_town_pt.44253",
				"Name": "东嘎镇",
				"pyname": "dgz",
				"mapid": "443037",
				"kind": "BB84",
				"display_x": "90.99832",
				"display_y": "29.65044"
			},
			"geometry": {
				"type": "Point",
				"coordinates": [
					90.99693036,
					29.65329108
				]
			}
		},
		{
			"type": "Feature",
			"properties": {
				"gml_id": "layer_town_pt.44254",
				"Name": "格达乡",
				"pyname": "gdx",
				"mapid": "443062",
				"kind": "BB84",
				"display_x": "90.36219",
				"display_y": "29.88379"
			},
			"geometry": {
				"type": "Point",
				"coordinates": [
					90.36045018,
					29.88646142
				]
			}
		},
		{
			"type": "Feature",
			"properties": {
				"gml_id": "layer_town_pt.44255",
				"Name": "德庆镇",
				"pyname": "dqz",
				"mapid": "443142",
				"kind": "BB84",
				"display_x": "91.36678",
				"display_y": "29.66918"
			},
			"geometry": {
				"type": "Point",
				"coordinates": [
					91.36519884,
					29.67185984
				]
			}
		},
		{
			"type": "Feature",
			"properties": {
				"gml_id": "layer_town_pt.44256",
				"Name": "续迈乡",
				"pyname": "xmx",
				"mapid": "443012",
				"kind": "BB84",
				"display_x": "90.26664",
				"display_y": "29.48387"
			},
			"geometry": {
				"type": "Point",
				"coordinates": [
					90.26500896,
					29.48677326
				]
			}
		},
		{
			"type": "Feature",
			"properties": {
				"gml_id": "layer_town_pt.44257",
				"Name": "白地乡",
				"pyname": "bdx",
				"mapid": "433052",
				"kind": "BB84",
				"display_x": "90.35523",
				"display_y": "29.11283"
			},
			"geometry": {
				"type": "Point",
				"coordinates": [
					90.35352342,
					29.11583354
				]
			}
		},
		{
			"type": "Feature",
			"properties": {
				"gml_id": "layer_town_pt.44258",
				"Name": "浪卡子镇",
				"pyname": "lkzz",
				"mapid": "433033",
				"kind": "BB84",
				"display_x": "90.4012",
				"display_y": "28.96976"
			},
			"geometry": {
				"type": "Point",
				"coordinates": [
					90.3994848,
					28.97283879
				]
			}
		},
		{
			"type": "Feature",
			"properties": {
				"gml_id": "layer_town_pt.44259",
				"Name": "曲下镇",
				"pyname": "qxz",
				"mapid": "432755",
				"kind": "BB84",
				"display_x": "87.6377",
				"display_y": "29.08841"
			},
			"geometry": {
				"type": "Point",
				"coordinates": [
					87.63531012,
					29.09175467
				]
			}
		},
		{
			"type": "Feature",
			"properties": {
				"gml_id": "layer_town_pt.44260",
				"Name": "萨迦镇",
				"pyname": "sjz",
				"mapid": "432820",
				"kind": "BB84",
				"display_x": "88.02198",
				"display_y": "28.90306"
			},
			"geometry": {
				"type": "Point",
				"coordinates": [
					88.019478,
					28.90634058
				]
			}
		},
		{
			"type": "Feature",
			"properties": {
				"gml_id": "layer_town_pt.44261",
				"Name": "聂拉木镇",
				"pyname": "nlmz",
				"mapid": "422517",
				"kind": "BB84",
				"display_x": "85.97938",
				"display_y": "28.15719"
			},
			"geometry": {
				"type": "Point",
				"coordinates": [
					85.97733372,
					28.16092535
				]
			}
		},
		{
			"type": "Feature",
			"properties": {
				"gml_id": "layer_town_pt.44262",
				"Name": "康马镇",
				"pyname": "kmz",
				"mapid": "422965",
				"kind": "BB84",
				"display_x": "89.6813",
				"display_y": "28.55442"
			},
			"geometry": {
				"type": "Point",
				"coordinates": [
					89.67931578,
					28.55805746
				]
			}
		},
		{
			"type": "Feature",
			"properties": {
				"gml_id": "layer_town_pt.44263",
				"Name": "琼结镇",
				"pyname": "qjz",
				"mapid": "433145",
				"kind": "BB84",
				"display_x": "91.68226",
				"display_y": "29.0237"
			},
			"geometry": {
				"type": "Point",
				"coordinates": [
					91.68104142,
					29.02697082
				]
			}
		},
		{
			"type": "Feature",
			"properties": {
				"gml_id": "layer_town_pt.44264",
				"Name": "拉玉乡",
				"pyname": "lyx",
				"mapid": "433155",
				"kind": "BB84",
				"display_x": "91.67047",
				"display_y": "29.14361"
			},
			"geometry": {
				"type": "Point",
				"coordinates": [
					91.66927068,
					29.14681032
				]
			}
		},
		{
			"type": "Feature",
			"properties": {
				"gml_id": "layer_town_pt.44265",
				"Name": "扎唐镇",
				"pyname": "ztz",
				"mapid": "433172",
				"kind": "BB84",
				"display_x": "91.34132",
				"display_y": "29.25529"
			},
			"geometry": {
				"type": "Point",
				"coordinates": [
					91.3397913,
					29.25819779
				]
			}
		},
		{
			"type": "Feature",
			"properties": {
				"gml_id": "layer_town_pt.44266",
				"Name": "下水乡",
				"pyname": "xsx",
				"mapid": "433145",
				"kind": "BB84",
				"display_x": "91.70712",
				"display_y": "29.07624"
			},
			"geometry": {
				"type": "Point",
				"coordinates": [
					91.70586252,
					29.07942656
				]
			}
		},
		{
			"type": "Feature",
			"properties": {
				"gml_id": "layer_town_pt.44267",
				"Name": "安绕镇",
				"pyname": "arz",
				"mapid": "433254",
				"kind": "BB84",
				"display_x": "92.58145",
				"display_y": "29.14038"
			},
			"geometry": {
				"type": "Point",
				"coordinates": [
					92.58064776,
					29.14364592
				]
			}
		},
		{
			"type": "Feature",
			"properties": {
				"gml_id": "layer_town_pt.44268",
				"Name": "江嘎镇",
				"pyname": "jgz",
				"mapid": "422746",
				"kind": "BB84",
				"display_x": "87.77122",
				"display_y": "28.36371"
			},
			"geometry": {
				"type": "Point",
				"coordinates": [
					87.7687488,
					28.3673561
				]
			}
		},
		{
			"type": "Feature",
			"properties": {
				"gml_id": "layer_town_pt.44269",
				"Name": "江孜镇",
				"pyname": "jzz",
				"mapid": "432924",
				"kind": "BB84",
				"display_x": "89.60469",
				"display_y": "28.91469"
			},
			"geometry": {
				"type": "Point",
				"coordinates": [
					89.60272488,
					28.91817468
				]
			}
		},
		{
			"type": "Feature",
			"properties": {
				"gml_id": "layer_town_pt.44270",
				"Name": "措美镇",
				"pyname": "cmz",
				"mapid": "423153",
				"kind": "BB84",
				"display_x": "91.42839",
				"display_y": "28.43882"
			},
			"geometry": {
				"type": "Point",
				"coordinates": [
					91.42682526,
					28.44219092
				]
			}
		},
		{
			"type": "Feature",
			"properties": {
				"gml_id": "layer_town_pt.44271",
				"Name": "日当镇",
				"pyname": "rdz",
				"mapid": "423252",
				"kind": "BB84",
				"display_x": "92.2825",
				"display_y": "28.43745"
			},
			"geometry": {
				"type": "Point",
				"coordinates": [
					92.28146328,
					28.4409639
				]
			}
		},
		{
			"type": "Feature",
			"properties": {
				"gml_id": "layer_town_pt.44272",
				"Name": "隆子镇",
				"pyname": "lzz",
				"mapid": "423243",
				"kind": "BB84",
				"display_x": "92.46316",
				"display_y": "28.40661"
			},
			"geometry": {
				"type": "Point",
				"coordinates": [
					92.4620634,
					28.41004791
				]
			}
		},
		{
			"type": "Feature",
			"properties": {
				"gml_id": "layer_town_pt.44273",
				"Name": "曲松镇",
				"pyname": "qsz",
				"mapid": "433241",
				"kind": "BB84",
				"display_x": "92.2008",
				"display_y": "29.06353"
			},
			"geometry": {
				"type": "Point",
				"coordinates": [
					92.19969234,
					29.06663846
				]
			}
		},
		{
			"type": "Feature",
			"properties": {
				"gml_id": "layer_town_pt.44274",
				"Name": "错那镇",
				"pyname": "cnz",
				"mapid": "413177",
				"kind": "BB84",
				"display_x": "91.95884",
				"display_y": "27.99238"
			},
			"geometry": {
				"type": "Point",
				"coordinates": [
					91.95781986,
					27.99603059
				]
			}
		},
		{
			"type": "Feature",
			"properties": {
				"gml_id": "layer_town_pt.44275",
				"Name": "热索乡",
				"pyname": "rsx",
				"mapid": "432943",
				"kind": "BB84",
				"display_x": "89.41155",
				"display_y": "29.04771"
			},
			"geometry": {
				"type": "Point",
				"coordinates": [
					89.40909024,
					29.05073996
				]
			}
		},
		{
			"type": "Feature",
			"properties": {
				"gml_id": "layer_town_pt.44276",
				"Name": "桑日镇",
				"pyname": "srz",
				"mapid": "433270",
				"kind": "BB84",
				"display_x": "92.01965",
				"display_y": "29.26412"
			},
			"geometry": {
				"type": "Point",
				"coordinates": [
					92.01844602,
					29.26707543
				]
			}
		},
		{
			"type": "Feature",
			"properties": {
				"gml_id": "layer_town_pt.44277",
				"Name": "八一镇",
				"pyname": "byz",
				"mapid": "443432",
				"kind": "BB84",
				"display_x": "94.36012",
				"display_y": "29.63987"
			},
			"geometry": {
				"type": "Point",
				"coordinates": [
					94.3589403,
					29.64255003
				]
			}
		},
		{
			"type": "Feature",
			"properties": {
				"gml_id": "layer_town_pt.44278",
				"Name": "丹娘乡",
				"pyname": "dnx",
				"mapid": "443415",
				"kind": "BB84",
				"display_x": "94.71191",
				"display_y": "29.43834"
			},
			"geometry": {
				"type": "Point",
				"coordinates": [
					94.71098502,
					29.44126778
				]
			}
		},
		{
			"type": "Feature",
			"properties": {
				"gml_id": "layer_town_pt.44279",
				"Name": "工布江达镇",
				"pyname": "gbjdz",
				"mapid": "443361",
				"kind": "BB84",
				"display_x": "93.24862",
				"display_y": "29.88167"
			},
			"geometry": {
				"type": "Point",
				"coordinates": [
					93.24732888,
					29.88445001
				]
			}
		},
		{
			"type": "Feature",
			"properties": {
				"gml_id": "layer_town_pt.44280",
				"Name": "鲁郎镇",
				"pyname": "llz",
				"mapid": "443445",
				"kind": "BB84",
				"display_x": "94.72697",
				"display_y": "29.73173"
			},
			"geometry": {
				"type": "Point",
				"coordinates": [
					94.72601088,
					29.73454142
				]
			}
		},
		{
			"type": "Feature",
			"properties": {
				"gml_id": "layer_town_pt.44281",
				"Name": "马利镇",
				"pyname": "mlz",
				"mapid": "463621",
				"kind": "BB84",
				"display_x": "96.2305",
				"display_y": "30.87917"
			},
			"geometry": {
				"type": "Point",
				"coordinates": [
					96.22996146,
					30.88169424
				]
			}
		},
		{
			"type": "Feature",
			"properties": {
				"gml_id": "layer_town_pt.44282",
				"Name": "吉汝乡",
				"pyname": "jrx",
				"mapid": "422920",
				"kind": "BB84",
				"display_x": "89.05194",
				"display_y": "28.17519"
			},
			"geometry": {
				"type": "Point",
				"coordinates": [
					89.04954618,
					28.17867551
				]
			}
		},
		{
			"type": "Feature",
			"properties": {
				"gml_id": "layer_town_pt.44283",
				"Name": "卡龙乡",
				"pyname": "klx",
				"mapid": "433043",
				"kind": "BB84",
				"display_x": "90.48738",
				"display_y": "29.03288"
			},
			"geometry": {
				"type": "Point",
				"coordinates": [
					90.48586716,
					29.03604512
				]
			}
		},
		{
			"type": "Feature",
			"properties": {
				"gml_id": "layer_town_pt.44284",
				"Name": "新荣乡",
				"pyname": "xrx",
				"mapid": "463536",
				"kind": "BB84",
				"display_x": "95.77348",
				"display_y": "30.952"
			},
			"geometry": {
				"type": "Point",
				"coordinates": [
					95.77261566,
					30.95451293
				]
			}
		},
		{
			"type": "Feature",
			"properties": {
				"gml_id": "layer_town_pt.44285",
				"Name": "少岗乡",
				"pyname": "sgx",
				"mapid": "432905",
				"kind": "BB84",
				"display_x": "89.64103",
				"display_y": "28.6958"
			},
			"geometry": {
				"type": "Point",
				"coordinates": [
					89.63908506,
					28.69942941
				]
			}
		},
		{
			"type": "Feature",
			"properties": {
				"gml_id": "layer_town_pt.44286",
				"Name": "秋木乡",
				"pyname": "qmx",
				"mapid": "442930",
				"kind": "BB84",
				"display_x": "89.01648",
				"display_y": "29.62782"
			},
			"geometry": {
				"type": "Point",
				"coordinates": [
					89.01412614,
					29.63065374
				]
			}
		},
		{
			"type": "Feature",
			"properties": {
				"gml_id": "layer_town_pt.44287",
				"Name": "玉仁乡",
				"pyname": "yrx",
				"mapid": "453532",
				"kind": "BB84",
				"display_x": "95.3491",
				"display_y": "30.26402"
			},
			"geometry": {
				"type": "Point",
				"coordinates": [
					95.3479098,
					30.26665692
				]
			}
		},
		{
			"type": "Feature",
			"properties": {
				"gml_id": "layer_town_pt.44288",
				"Name": "下亚东乡",
				"pyname": "xydx",
				"mapid": "412817",
				"kind": "BB84",
				"display_x": "88.93011",
				"display_y": "27.42593"
			},
			"geometry": {
				"type": "Point",
				"coordinates": [
					88.92810522,
					27.42965447
				]
			}
		},
		{
			"type": "Feature",
			"properties": {
				"gml_id": "layer_town_pt.44289",
				"Name": "帕羊镇",
				"pyname": "pyz",
				"mapid": "452303",
				"kind": "BB84",
				"display_x": "83.46705",
				"display_y": "30.03494"
			},
			"geometry": {
				"type": "Point",
				"coordinates": [
					83.4642117,
					30.03776366
				]
			}
		},
		{
			"type": "Feature",
			"properties": {
				"gml_id": "layer_town_pt.44290",
				"Name": "尼玛乡",
				"pyname": "nmx",
				"mapid": "473246",
				"kind": "BB84",
				"display_x": "92.73263",
				"display_y": "31.54074"
			},
			"geometry": {
				"type": "Point",
				"coordinates": [
					92.73154896,
					31.54305839
				]
			}
		},
		{
			"type": "Feature",
			"properties": {
				"gml_id": "layer_town_pt.44291",
				"Name": "昌果乡",
				"pyname": "cgx",
				"mapid": "443101",
				"kind": "BB84",
				"display_x": "91.13646",
				"display_y": "29.35395"
			},
			"geometry": {
				"type": "Point",
				"coordinates": [
					91.13488038,
					29.35675611
				]
			}
		},
		{
			"type": "Feature",
			"properties": {
				"gml_id": "layer_town_pt.44292",
				"Name": "阿扎乡",
				"pyname": "azx",
				"mapid": "443102",
				"kind": "BB84",
				"display_x": "91.27435",
				"display_y": "29.36287"
			},
			"geometry": {
				"type": "Point",
				"coordinates": [
					91.27293642,
					29.36581628
				]
			}
		},
		{
			"type": "Feature",
			"properties": {
				"gml_id": "layer_town_pt.44293",
				"Name": "扎西岗乡",
				"pyname": "zxgx",
				"mapid": "422860",
				"kind": "BB84",
				"display_x": "88.06151",
				"display_y": "28.5185"
			},
			"geometry": {
				"type": "Point",
				"coordinates": [
					88.05895128,
					28.52193245
				]
			}
		},
		{
			"type": "Feature",
			"properties": {
				"gml_id": "layer_town_pt.44294",
				"Name": "恰则乡",
				"pyname": "qzx",
				"mapid": "473341",
				"kind": "BB84",
				"display_x": "93.16026",
				"display_y": "31.6692"
			},
			"geometry": {
				"type": "Point",
				"coordinates": [
					93.15883368,
					31.67139083
				]
			}
		},
		{
			"type": "Feature",
			"properties": {
				"gml_id": "layer_town_pt.44295",
				"Name": "萨尔乡",
				"pyname": "sex",
				"mapid": "422725",
				"kind": "BB84",
				"display_x": "87.7457",
				"display_y": "28.19024"
			},
			"geometry": {
				"type": "Point",
				"coordinates": [
					87.743223,
					28.19388942
				]
			}
		},
		{
			"type": "Feature",
			"properties": {
				"gml_id": "layer_town_pt.44296",
				"Name": "柳乡",
				"pyname": "lx",
				"mapid": "432861",
				"kind": "BB84",
				"display_x": "88.18185",
				"display_y": "29.16751"
			},
			"geometry": {
				"type": "Point",
				"coordinates": [
					88.17937326,
					29.1705521
				]
			}
		},
		{
			"type": "Feature",
			"properties": {
				"gml_id": "layer_town_pt.44297",
				"Name": "日多乡",
				"pyname": "rdx",
				"mapid": "443241",
				"kind": "BB84",
				"display_x": "92.23721",
				"display_y": "29.69247"
			},
			"geometry": {
				"type": "Point",
				"coordinates": [
					92.23615134,
					29.69528378
				]
			}
		},
		{
			"type": "Feature",
			"properties": {
				"gml_id": "layer_town_pt.44298",
				"Name": "措迈乡",
				"pyname": "cmx",
				"mapid": "452657",
				"kind": "BB84",
				"display_x": "86.90824",
				"display_y": "30.41927"
			},
			"geometry": {
				"type": "Point",
				"coordinates": [
					86.90609466,
					30.42227039
				]
			}
		},
		{
			"type": "Feature",
			"properties": {
				"gml_id": "layer_town_pt.44299",
				"Name": "扎西岗乡",
				"pyname": "zxgx",
				"mapid": "443157",
				"kind": "BB84",
				"display_x": "91.91591",
				"display_y": "29.76282"
			},
			"geometry": {
				"type": "Point",
				"coordinates": [
					91.91490876,
					29.76581304
				]
			}
		},
		{
			"type": "Feature",
			"properties": {
				"gml_id": "layer_town_pt.44300",
				"Name": "亚热乡",
				"pyname": "yrx",
				"mapid": "442420",
				"kind": "BB84",
				"display_x": "84.08645",
				"display_y": "29.52055"
			},
			"geometry": {
				"type": "Point",
				"coordinates": [
					84.08386962,
					29.52336078
				]
			}
		},
		{
			"type": "Feature",
			"properties": {
				"gml_id": "layer_town_pt.44301",
				"Name": "雅安镇",
				"pyname": "yaz",
				"mapid": "473463",
				"kind": "BB84",
				"display_x": "94.43678",
				"display_y": "31.8389"
			},
			"geometry": {
				"type": "Point",
				"coordinates": [
					94.4355501,
					31.84107444
				]
			}
		},
		{
			"type": "Feature",
			"properties": {
				"gml_id": "layer_town_pt.44302",
				"Name": "岗色乡",
				"pyname": "gsx",
				"mapid": "473621",
				"kind": "BB84",
				"display_x": "96.17351",
				"display_y": "31.55451"
			},
			"geometry": {
				"type": "Point",
				"coordinates": [
					96.17284242,
					31.55669951
				]
			}
		},
		{
			"type": "Feature",
			"properties": {
				"gml_id": "layer_town_pt.44303",
				"Name": "偏吉乡",
				"pyname": "pjx",
				"mapid": "442354",
				"kind": "BB84",
				"display_x": "83.60804",
				"display_y": "29.75271"
			},
			"geometry": {
				"type": "Point",
				"coordinates": [
					83.60557614,
					29.75582651
				]
			}
		},
		{
			"type": "Feature",
			"properties": {
				"gml_id": "layer_town_pt.44304",
				"Name": "彭措林乡",
				"pyname": "pclx",
				"mapid": "442800",
				"kind": "BB84",
				"display_x": "88.00647",
				"display_y": "29.37561"
			},
			"geometry": {
				"type": "Point",
				"coordinates": [
					88.00399692,
					29.37859277
				]
			}
		},
		{
			"type": "Feature",
			"properties": {
				"gml_id": "layer_town_pt.44305",
				"Name": "巴达乡",
				"pyname": "bdx",
				"mapid": "473436",
				"kind": "BB84",
				"display_x": "94.78274",
				"display_y": "31.65003"
			},
			"geometry": {
				"type": "Point",
				"coordinates": [
					94.78173006,
					31.65233994
				]
			}
		},
		{
			"type": "Feature",
			"properties": {
				"gml_id": "layer_town_pt.44306",
				"Name": "吉中乡",
				"pyname": "jzx",
				"mapid": "453741",
				"kind": "BB84",
				"display_x": "97.24166",
				"display_y": "30.34064"
			},
			"geometry": {
				"type": "Point",
				"coordinates": [
					97.24117464,
					30.34335825
				]
			}
		},
		{
			"type": "Feature",
			"properties": {
				"gml_id": "layer_town_pt.44307",
				"Name": "罗玛镇",
				"pyname": "lmz",
				"mapid": "463177",
				"kind": "BB84",
				"display_x": "91.87601",
				"display_y": "31.31785"
			},
			"geometry": {
				"type": "Point",
				"coordinates": [
					91.8749412,
					31.32038984
				]
			}
		},
		{
			"type": "Feature",
			"properties": {
				"gml_id": "layer_town_pt.44308",
				"Name": "本塔乡",
				"pyname": "btx",
				"mapid": "483302",
				"kind": "BB84",
				"display_x": "93.2534",
				"display_y": "32.07665"
			},
			"geometry": {
				"type": "Point",
				"coordinates": [
					93.2520519,
					32.07903062
				]
			}
		},
		{
			"type": "Feature",
			"properties": {
				"gml_id": "layer_town_pt.44309",
				"Name": "江绵乡",
				"pyname": "jmx",
				"mapid": "483401",
				"kind": "BB84",
				"display_x": "94.19912",
				"display_y": "32.07431"
			},
			"geometry": {
				"type": "Point",
				"coordinates": [
					94.19791158,
					32.07664035
				]
			}
		},
		{
			"type": "Feature",
			"properties": {
				"gml_id": "layer_town_pt.44310",
				"Name": "芒普乡",
				"pyname": "mpx",
				"mapid": "432735",
				"kind": "BB84",
				"display_x": "87.63538",
				"display_y": "28.9612"
			},
			"geometry": {
				"type": "Point",
				"coordinates": [
					87.63300414,
					28.96465473
				]
			}
		},
		{
			"type": "Feature",
			"properties": {
				"gml_id": "layer_town_pt.44311",
				"Name": "绒乡",
				"pyname": "rx",
				"mapid": "433260",
				"kind": "BB84",
				"display_x": "92.01365",
				"display_y": "29.22237"
			},
			"geometry": {
				"type": "Point",
				"coordinates": [
					92.0124639,
					29.225372
				]
			}
		},
		{
			"type": "Feature",
			"properties": {
				"gml_id": "layer_town_pt.44312",
				"Name": "羊八井镇",
				"pyname": "ybjz",
				"mapid": "453014",
				"kind": "BB84",
				"display_x": "90.53931",
				"display_y": "30.09534"
			},
			"geometry": {
				"type": "Point",
				"coordinates": [
					90.53795934,
					30.098268
				]
			}
		},
		{
			"type": "Feature",
			"properties": {
				"gml_id": "layer_town_pt.44313",
				"Name": "拉多乡",
				"pyname": "ldx",
				"mapid": "473723",
				"kind": "BB84",
				"display_x": "97.42621",
				"display_y": "31.55561"
			},
			"geometry": {
				"type": "Point",
				"coordinates": [
					97.42547376,
					31.5576869
				]
			}
		},
		{
			"type": "Feature",
			"properties": {
				"gml_id": "layer_town_pt.44314",
				"Name": "香曲乡",
				"pyname": "xqx",
				"mapid": "473316",
				"kind": "BB84",
				"display_x": "93.79985",
				"display_y": "31.48362"
			},
			"geometry": {
				"type": "Point",
				"coordinates": [
					93.79857798,
					31.48597161
				]
			}
		},
		{
			"type": "Feature",
			"properties": {
				"gml_id": "layer_town_pt.44315",
				"Name": "赛乡",
				"pyname": "sx",
				"mapid": "432825",
				"kind": "BB84",
				"display_x": "88.74506",
				"display_y": "28.89997"
			},
			"geometry": {
				"type": "Point",
				"coordinates": [
					88.74280224,
					28.90329885
				]
			}
		},
		{
			"type": "Feature",
			"properties": {
				"gml_id": "layer_town_pt.44316",
				"Name": "如意乡",
				"pyname": "ryx",
				"mapid": "463761",
				"kind": "BB84",
				"display_x": "97.17783",
				"display_y": "31.2112"
			},
			"geometry": {
				"type": "Point",
				"coordinates": [
					97.1772552,
					31.21345908
				]
			}
		},
		{
			"type": "Feature",
			"properties": {
				"gml_id": "layer_town_pt.44317",
				"Name": "廓堆乡",
				"pyname": "kdx",
				"mapid": "423167",
				"kind": "BB84",
				"display_x": "91.88287",
				"display_y": "28.54304"
			},
			"geometry": {
				"type": "Point",
				"coordinates": [
					91.88186328,
					28.54671588
				]
			}
		},
		{
			"type": "Feature",
			"properties": {
				"gml_id": "layer_town_pt.44318",
				"Name": "加克西乡",
				"pyname": "jkxx",
				"mapid": "422961",
				"kind": "BB84",
				"display_x": "89.22558",
				"display_y": "28.58232"
			},
			"geometry": {
				"type": "Point",
				"coordinates": [
					89.22329892,
					28.58584212
				]
			}
		},
		{
			"type": "Feature",
			"properties": {
				"gml_id": "layer_town_pt.44319",
				"Name": "吉玛乡",
				"pyname": "jmx",
				"mapid": "462412",
				"kind": "BB84",
				"display_x": "84.36257",
				"display_y": "30.79575"
			},
			"geometry": {
				"type": "Point",
				"coordinates": [
					84.3601302,
					30.79834326
				]
			}
		},
		{
			"type": "Feature",
			"properties": {
				"gml_id": "layer_town_pt.44320",
				"Name": "昌珠镇",
				"pyname": "czz",
				"mapid": "433166",
				"kind": "BB84",
				"display_x": "91.77272",
				"display_y": "29.18708"
			},
			"geometry": {
				"type": "Point",
				"coordinates": [
					91.77146154,
					29.19015626
				]
			}
		},
		{
			"type": "Feature",
			"properties": {
				"gml_id": "layer_town_pt.44321",
				"Name": "然乌镇",
				"pyname": "rwz",
				"mapid": "443626",
				"kind": "BB84",
				"display_x": "96.75116",
				"display_y": "29.50296"
			},
			"geometry": {
				"type": "Point",
				"coordinates": [
					96.75083484,
					29.50579454
				]
			}
		},
		{
			"type": "Feature",
			"properties": {
				"gml_id": "layer_town_pt.44322",
				"Name": "唐嘎乡",
				"pyname": "tgx",
				"mapid": "443164",
				"kind": "BB84",
				"display_x": "91.55214",
				"display_y": "29.83847"
			},
			"geometry": {
				"type": "Point",
				"coordinates": [
					91.55090898,
					29.84140211
				]
			}
		},
		{
			"type": "Feature",
			"properties": {
				"gml_id": "layer_town_pt.44323",
				"Name": "南木切乡",
				"pyname": "nmqx",
				"mapid": "442832",
				"kind": "BB84",
				"display_x": "88.31815",
				"display_y": "29.58366"
			},
			"geometry": {
				"type": "Point",
				"coordinates": [
					88.31572758,
					29.58648377
				]
			}
		},
		{
			"type": "Feature",
			"properties": {
				"gml_id": "layer_town_pt.44324",
				"Name": "察瓦龙乡",
				"pyname": "cwlx",
				"mapid": "423853",
				"kind": "BB84",
				"display_x": "98.4636",
				"display_y": "28.47661"
			},
			"geometry": {
				"type": "Point",
				"coordinates": [
					98.46307584,
					28.47996356
				]
			}
		},
		{
			"type": "Feature",
			"properties": {
				"gml_id": "layer_town_pt.44325",
				"Name": "奴玛乡",
				"pyname": "nmx",
				"mapid": "442915",
				"kind": "BB84",
				"display_x": "89.64025",
				"display_y": "29.44229"
			},
			"geometry": {
				"type": "Point",
				"coordinates": [
					89.63826138,
					29.44537803
				]
			}
		},
		{
			"type": "Feature",
			"properties": {
				"gml_id": "layer_town_pt.44326",
				"Name": "措拉乡",
				"pyname": "clx",
				"mapid": "463246",
				"kind": "BB84",
				"display_x": "92.85544",
				"display_y": "31.07475"
			},
			"geometry": {
				"type": "Point",
				"coordinates": [
					92.8544769,
					31.07736171
				]
			}
		},
		{
			"type": "Feature",
			"properties": {
				"gml_id": "layer_town_pt.44327",
				"Name": "麻布加乡",
				"pyname": "mbjx",
				"mapid": "432706",
				"kind": "BB84",
				"display_x": "87.85736",
				"display_y": "28.66757"
			},
			"geometry": {
				"type": "Point",
				"coordinates": [
					87.8550399,
					28.67122292
				]
			}
		},
		{
			"type": "Feature",
			"properties": {
				"gml_id": "layer_town_pt.44328",
				"Name": "者下乡",
				"pyname": "zxx",
				"mapid": "432837",
				"kind": "BB84",
				"display_x": "88.96382",
				"display_y": "28.93508"
			},
			"geometry": {
				"type": "Point",
				"coordinates": [
					88.96166388,
					28.93848692
				]
			}
		},
		{
			"type": "Feature",
			"properties": {
				"gml_id": "layer_town_pt.44329",
				"Name": "马乡",
				"pyname": "mx",
				"mapid": "443065",
				"kind": "BB84",
				"display_x": "90.73961",
				"display_y": "29.85387"
			},
			"geometry": {
				"type": "Point",
				"coordinates": [
					90.73820286,
					29.85669252
				]
			}
		},
		{
			"type": "Feature",
			"properties": {
				"gml_id": "layer_town_pt.44330",
				"Name": "贡日门巴民族乡",
				"pyname": "grmbmzx",
				"mapid": "413166",
				"kind": "BB84",
				"display_x": "91.79564",
				"display_y": "27.90674"
			},
			"geometry": {
				"type": "Point",
				"coordinates": [
					91.79445798,
					27.91030671
				]
			}
		},
		{
			"type": "Feature",
			"properties": {
				"gml_id": "layer_town_pt.44331",
				"Name": "甘岩乡",
				"pyname": "gyx",
				"mapid": "473550",
				"kind": "BB84",
				"display_x": "95.0472",
				"display_y": "31.77313"
			},
			"geometry": {
				"type": "Point",
				"coordinates": [
					95.0459796,
					31.77530514
				]
			}
		},
		{
			"type": "Feature",
			"properties": {
				"gml_id": "layer_town_pt.44332",
				"Name": "日通乡",
				"pyname": "rtx",
				"mapid": "473701",
				"kind": "BB84",
				"display_x": "97.21788",
				"display_y": "31.37044"
			},
			"geometry": {
				"type": "Point",
				"coordinates": [
					97.21736352,
					31.37270117
				]
			}
		},
		{
			"type": "Feature",
			"properties": {
				"gml_id": "layer_town_pt.44333",
				"Name": "物玛乡",
				"pyname": "wmx",
				"mapid": "482344",
				"kind": "BB84",
				"display_x": "83.54968",
				"display_y": "32.35742"
			},
			"geometry": {
				"type": "Point",
				"coordinates": [
					83.5470531,
					32.36012811
				]
			}
		},
		{
			"type": "Feature",
			"properties": {
				"gml_id": "layer_town_pt.44334",
				"Name": "达那普乡",
				"pyname": "dnpx",
				"mapid": "442835",
				"kind": "BB84",
				"display_x": "88.62831",
				"display_y": "29.66616"
			},
			"geometry": {
				"type": "Point",
				"coordinates": [
					88.62622542,
					29.66920214
				]
			}
		},
		{
			"type": "Feature",
			"properties": {
				"gml_id": "layer_town_pt.44335",
				"Name": "拉洛乡",
				"pyname": "llx",
				"mapid": "432824",
				"kind": "BB84",
				"display_x": "88.5736",
				"display_y": "28.91544"
			},
			"geometry": {
				"type": "Point",
				"coordinates": [
					88.57152792,
					28.91892537
				]
			}
		},
		{
			"type": "Feature",
			"properties": {
				"gml_id": "layer_town_pt.44336",
				"Name": "加措乡",
				"pyname": "jcx",
				"mapid": "432712",
				"kind": "BB84",
				"display_x": "87.25309",
				"display_y": "28.77783"
			},
			"geometry": {
				"type": "Point",
				"coordinates": [
					87.2506161,
					28.78126421
				]
			}
		},
		{
			"type": "Feature",
			"properties": {
				"gml_id": "layer_town_pt.44337",
				"Name": "日星乡",
				"pyname": "rxx",
				"mapid": "432922",
				"kind": "BB84",
				"display_x": "89.27745",
				"display_y": "28.89735"
			},
			"geometry": {
				"type": "Point",
				"coordinates": [
					89.27515926,
					28.90066887
				]
			}
		},
		{
			"type": "Feature",
			"properties": {
				"gml_id": "layer_town_pt.44338",
				"Name": "埃西乡",
				"pyname": "axx",
				"mapid": "463742",
				"kind": "BB84",
				"display_x": "97.34337",
				"display_y": "31.0462"
			},
			"geometry": {
				"type": "Point",
				"coordinates": [
					97.34271516,
					31.0485051
				]
			}
		},
		{
			"type": "Feature",
			"properties": {
				"gml_id": "layer_town_pt.44339",
				"Name": "帕里镇",
				"pyname": "plz",
				"mapid": "412941",
				"kind": "BB84",
				"display_x": "89.15495",
				"display_y": "27.71821"
			},
			"geometry": {
				"type": "Point",
				"coordinates": [
					89.15258124,
					27.72163634
				]
			}
		},
		{
			"type": "Feature",
			"properties": {
				"gml_id": "layer_town_pt.44340",
				"Name": "波绒乡",
				"pyname": "brx",
				"mapid": "432506",
				"kind": "BB84",
				"display_x": "85.79209",
				"display_y": "28.75046"
			},
			"geometry": {
				"type": "Point",
				"coordinates": [
					85.78989828,
					28.75397697
				]
			}
		},
		{
			"type": "Feature",
			"properties": {
				"gml_id": "layer_town_pt.44341",
				"Name": "堆斯乡",
				"pyname": "dsx",
				"mapid": "433241",
				"kind": "BB84",
				"display_x": "92.13796",
				"display_y": "29.0208"
			},
			"geometry": {
				"type": "Point",
				"coordinates": [
					92.13670332,
					29.02383491
				]
			}
		},
		{
			"type": "Feature",
			"properties": {
				"gml_id": "layer_town_pt.44342",
				"Name": "长所乡",
				"pyname": "csx",
				"mapid": "422774",
				"kind": "BB84",
				"display_x": "87.51762",
				"display_y": "28.62764"
			},
			"geometry": {
				"type": "Point",
				"coordinates": [
					87.51513906,
					28.6312181
				]
			}
		},
		{
			"type": "Feature",
			"properties": {
				"gml_id": "layer_town_pt.44343",
				"Name": "霍尔乡",
				"pyname": "hex",
				"mapid": "462114",
				"kind": "BB84",
				"display_x": "81.61293",
				"display_y": "30.77058"
			},
			"geometry": {
				"type": "Point",
				"coordinates": [
					81.61049394,
					30.77357121
				]
			}
		},
		{
			"type": "Feature",
			"properties": {
				"gml_id": "layer_town_pt.44344",
				"Name": "索金乡",
				"pyname": "sjx",
				"mapid": "442934",
				"kind": "BB84",
				"display_x": "89.56356",
				"display_y": "29.63286"
			},
			"geometry": {
				"type": "Point",
				"coordinates": [
					89.56151784,
					29.63587716
				]
			}
		},
		{
			"type": "Feature",
			"properties": {
				"gml_id": "layer_town_pt.44345",
				"Name": "八廓街道",
				"pyname": "bkjd",
				"mapid": "443131",
				"kind": "BB84",
				"display_x": "91.13263",
				"display_y": "29.6494"
			},
			"geometry": {
				"type": "Point",
				"coordinates": [
					91.1310444,
					29.6520854
				]
			}
		},
		{
			"type": "Feature",
			"properties": {
				"gml_id": "layer_town_pt.44346",
				"Name": "扎拉乡",
				"pyname": "zlx",
				"mapid": "473354",
				"kind": "BB84",
				"display_x": "93.61724",
				"display_y": "31.76033"
			},
			"geometry": {
				"type": "Point",
				"coordinates": [
					93.61607094,
					31.76282169
				]
			}
		},
		{
			"type": "Feature",
			"properties": {
				"gml_id": "layer_town_pt.44347",
				"Name": "洞措乡",
				"pyname": "dcx",
				"mapid": "482417",
				"kind": "BB84",
				"display_x": "84.88059",
				"display_y": "32.09577"
			},
			"geometry": {
				"type": "Point",
				"coordinates": [
					84.87853254,
					32.09845883
				]
			}
		},
		{
			"type": "Feature",
			"properties": {
				"gml_id": "layer_town_pt.44348",
				"Name": "仲达镇",
				"pyname": "zdz",
				"mapid": "433246",
				"kind": "BB84",
				"display_x": "92.83492",
				"display_y": "29.06687"
			},
			"geometry": {
				"type": "Point",
				"coordinates": [
					92.83396392,
					29.07011943
				]
			}
		},
		{
			"type": "Feature",
			"properties": {
				"gml_id": "layer_town_pt.44349",
				"Name": "岗巴镇",
				"pyname": "gbz",
				"mapid": "422823",
				"kind": "BB84",
				"display_x": "88.47729",
				"display_y": "28.21359"
			},
			"geometry": {
				"type": "Point",
				"coordinates": [
					88.47496206,
					28.21713165
				]
			}
		},
		{
			"type": "Feature",
			"properties": {
				"gml_id": "layer_town_pt.44350",
				"Name": "古玉乡",
				"pyname": "gyx",
				"mapid": "433751",
				"kind": "BB84",
				"display_x": "97.2218",
				"display_y": "29.145"
			},
			"geometry": {
				"type": "Point",
				"coordinates": [
					97.2213255,
					29.14801074
				]
			}
		},
		{
			"type": "Feature",
			"properties": {
				"gml_id": "layer_town_pt.44351",
				"Name": "多布扎乡",
				"pyname": "dbzx",
				"mapid": "422851",
				"kind": "BB84",
				"display_x": "88.22289",
				"display_y": "28.46003"
			},
			"geometry": {
				"type": "Point",
				"coordinates": [
					88.22054628,
					28.46360732
				]
			}
		},
		{
			"type": "Feature",
			"properties": {
				"gml_id": "layer_town_pt.44352",
				"Name": "马武乡",
				"pyname": "mwx",
				"mapid": "463521",
				"kind": "BB84",
				"display_x": "95.18581",
				"display_y": "30.90444"
			},
			"geometry": {
				"type": "Point",
				"coordinates": [
					95.18465556,
					30.90690621
				]
			}
		},
		{
			"type": "Feature",
			"properties": {
				"gml_id": "layer_town_pt.44353",
				"Name": "卧龙镇",
				"pyname": "wlz",
				"mapid": "433355",
				"kind": "BB84",
				"display_x": "93.70369",
				"display_y": "29.13286"
			},
			"geometry": {
				"type": "Point",
				"coordinates": [
					93.70246194,
					29.1360047
				]
			}
		},
		{
			"type": "Feature",
			"properties": {
				"gml_id": "layer_town_pt.44354",
				"Name": "吉日街道",
				"pyname": "jrjd",
				"mapid": "443131",
				"kind": "BB84",
				"display_x": "91.13789",
				"display_y": "29.64958"
			},
			"geometry": {
				"type": "Point",
				"coordinates": [
					91.1363121,
					29.65227228
				]
			}
		},
		{
			"type": "Feature",
			"properties": {
				"gml_id": "layer_town_pt.44355",
				"Name": "德吉林镇",
				"pyname": "djlz",
				"mapid": "432966",
				"kind": "BB84",
				"display_x": "89.87169",
				"display_y": "29.19191"
			},
			"geometry": {
				"type": "Point",
				"coordinates": [
					89.86990464,
					29.19516161
				]
			}
		},
		{
			"type": "Feature",
			"properties": {
				"gml_id": "layer_town_pt.44356",
				"Name": "拉藏乡",
				"pyname": "lcx",
				"mapid": "442424",
				"kind": "BB84",
				"display_x": "84.6214",
				"display_y": "29.54108"
			},
			"geometry": {
				"type": "Point",
				"coordinates": [
					84.619422,
					29.54420379
				]
			}
		},
		{
			"type": "Feature",
			"properties": {
				"gml_id": "layer_town_pt.44357",
				"Name": "林卡乡",
				"pyname": "lkx",
				"mapid": "453701",
				"kind": "BB84",
				"display_x": "97.17505",
				"display_y": "30.0083"
			},
			"geometry": {
				"type": "Point",
				"coordinates": [
					97.17449454,
					30.01094825
				]
			}
		},
		{
			"type": "Feature",
			"properties": {
				"gml_id": "layer_town_pt.44358",
				"Name": "金东乡",
				"pyname": "jdx",
				"mapid": "433333",
				"kind": "BB84",
				"display_x": "93.38232",
				"display_y": "28.96476"
			},
			"geometry": {
				"type": "Point",
				"coordinates": [
					93.38085504,
					28.96783457
				]
			}
		},
		{
			"type": "Feature",
			"properties": {
				"gml_id": "layer_town_pt.44359",
				"Name": "若巴乡",
				"pyname": "rbx",
				"mapid": "463730",
				"kind": "BB84",
				"display_x": "97.06562",
				"display_y": "30.9799"
			},
			"geometry": {
				"type": "Point",
				"coordinates": [
					97.06499388,
					30.9822062
				]
			}
		},
		{
			"type": "Feature",
			"properties": {
				"gml_id": "layer_town_pt.44360",
				"Name": "古路镇",
				"pyname": "glz",
				"mapid": "463114",
				"kind": "BB84",
				"display_x": "91.62262",
				"display_y": "30.82312"
			},
			"geometry": {
				"type": "Point",
				"coordinates": [
					91.6214508,
					30.82592192
				]
			}
		},
		{
			"type": "Feature",
			"properties": {
				"gml_id": "layer_town_pt.44361",
				"Name": "加兴乡",
				"pyname": "jxx",
				"mapid": "443276",
				"kind": "BB84",
				"display_x": "92.78849",
				"display_y": "29.92382"
			},
			"geometry": {
				"type": "Point",
				"coordinates": [
					92.787444,
					29.92663566
				]
			}
		},
		{
			"type": "Feature",
			"properties": {
				"gml_id": "layer_town_pt.44362",
				"Name": "都瓦乡",
				"pyname": "dwx",
				"mapid": "463437",
				"kind": "BB84",
				"display_x": "94.9183",
				"display_y": "31.0035"
			},
			"geometry": {
				"type": "Point",
				"coordinates": [
					94.91746356,
					31.00616096
				]
			}
		},
		{
			"type": "Feature",
			"properties": {
				"gml_id": "layer_town_pt.44363",
				"Name": "折巴乡",
				"pyname": "zbx",
				"mapid": "432563",
				"kind": "BB84",
				"display_x": "85.39315",
				"display_y": "29.22171"
			},
			"geometry": {
				"type": "Point",
				"coordinates": [
					85.3906392,
					29.22464831
				]
			}
		},
		{
			"type": "Feature",
			"properties": {
				"gml_id": "layer_town_pt.44364",
				"Name": "扎西宗乡",
				"pyname": "zxzx",
				"mapid": "422750",
				"kind": "BB84",
				"display_x": "87.02474",
				"display_y": "28.41856"
			},
			"geometry": {
				"type": "Point",
				"coordinates": [
					87.02233326,
					28.42210161
				]
			}
		},
		{
			"type": "Feature",
			"properties": {
				"gml_id": "layer_town_pt.44365",
				"Name": "朗杰学乡",
				"pyname": "ljxx",
				"mapid": "433150",
				"kind": "BB84",
				"display_x": "91.09921",
				"display_y": "29.15562"
			},
			"geometry": {
				"type": "Point",
				"coordinates": [
					91.0976067,
					29.15853471
				]
			}
		},
		{
			"type": "Feature",
			"properties": {
				"gml_id": "layer_town_pt.44366",
				"Name": "雄如乡",
				"pyname": "xrx",
				"mapid": "432475",
				"kind": "BB84",
				"display_x": "84.71534",
				"display_y": "29.36504"
			},
			"geometry": {
				"type": "Point",
				"coordinates": [
					84.71320542,
					29.36810417
				]
			}
		},
		{
			"type": "Feature",
			"properties": {
				"gml_id": "layer_town_pt.44367",
				"Name": "达庆乡",
				"pyname": "dqx",
				"mapid": "473246",
				"kind": "BB84",
				"display_x": "92.75274",
				"display_y": "31.74483"
			},
			"geometry": {
				"type": "Point",
				"coordinates": [
					92.75164506,
					31.74715463
				]
			}
		},
		{
			"type": "Feature",
			"properties": {
				"gml_id": "layer_town_pt.44368",
				"Name": "协雄乡",
				"pyname": "xxx",
				"mapid": "473505",
				"kind": "BB84",
				"display_x": "95.62529",
				"display_y": "31.4075"
			},
			"geometry": {
				"type": "Point",
				"coordinates": [
					95.62450968,
					31.40996873
				]
			}
		},
		{
			"type": "Feature",
			"properties": {
				"gml_id": "layer_town_pt.44369",
				"Name": "中仓乡",
				"pyname": "zcx",
				"mapid": "482503",
				"kind": "BB84",
				"display_x": "85.39592",
				"display_y": "32.01786"
			},
			"geometry": {
				"type": "Point",
				"coordinates": [
					85.3933608,
					32.02019699
				]
			}
		},
		{
			"type": "Feature",
			"properties": {
				"gml_id": "layer_town_pt.44370",
				"Name": "赤多乡",
				"pyname": "cdx",
				"mapid": "473316",
				"kind": "BB84",
				"display_x": "94.06216",
				"display_y": "31.50869"
			},
			"geometry": {
				"type": "Point",
				"coordinates": [
					94.06077822,
					31.51083978
				]
			}
		},
		{
			"type": "Feature",
			"properties": {
				"gml_id": "layer_town_pt.44371",
				"Name": "贡久布乡",
				"pyname": "gjbx",
				"mapid": "452770",
				"kind": "BB84",
				"display_x": "87.01815",
				"display_y": "30.61766"
			},
			"geometry": {
				"type": "Point",
				"coordinates": [
					87.01569612,
					30.62039814
				]
			}
		},
		{
			"type": "Feature",
			"properties": {
				"gml_id": "layer_town_pt.44372",
				"Name": "柳梧乡",
				"pyname": "lwx",
				"mapid": "443120",
				"kind": "BB84",
				"display_x": "91.03064",
				"display_y": "29.56306"
			},
			"geometry": {
				"type": "Point",
				"coordinates": [
					91.02914406,
					29.56584182
				]
			}
		},
		{
			"type": "Feature",
			"properties": {
				"gml_id": "layer_town_pt.44373",
				"Name": "尼玛乡",
				"pyname": "nmx",
				"mapid": "463140",
				"kind": "BB84",
				"display_x": "91.04196",
				"display_y": "31.0561"
			},
			"geometry": {
				"type": "Point",
				"coordinates": [
					91.0404144,
					31.05850941
				]
			}
		},
		{
			"type": "Feature",
			"properties": {
				"gml_id": "layer_town_pt.44374",
				"Name": "土布加乡",
				"pyname": "tbjx",
				"mapid": "442903",
				"kind": "BB84",
				"display_x": "89.47034",
				"display_y": "29.39182"
			},
			"geometry": {
				"type": "Point",
				"coordinates": [
					89.46798174,
					29.39469066
				]
			}
		},
		{
			"type": "Feature",
			"properties": {
				"gml_id": "layer_town_pt.44375",
				"Name": "查孜乡",
				"pyname": "czx",
				"mapid": "452603",
				"kind": "BB84",
				"display_x": "86.45585",
				"display_y": "30.07537"
			},
			"geometry": {
				"type": "Point",
				"coordinates": [
					86.45359248,
					30.07813752
				]
			}
		},
		{
			"type": "Feature",
			"properties": {
				"gml_id": "layer_town_pt.44376",
				"Name": "嘎玛乡",
				"pyname": "gmx",
				"mapid": "473760",
				"kind": "BB84",
				"display_x": "96.91417",
				"display_y": "31.82828"
			},
			"geometry": {
				"type": "Point",
				"coordinates": [
					96.91397388,
					31.83074168
				]
			}
		},
		{
			"type": "Feature",
			"properties": {
				"gml_id": "layer_town_pt.44377",
				"Name": "仁果乡",
				"pyname": "rgx",
				"mapid": "453801",
				"kind": "BB84",
				"display_x": "98.08479",
				"display_y": "29.93547"
			},
			"geometry": {
				"type": "Point",
				"coordinates": [
					98.0841627,
					29.93801715
				]
			}
		},
		{
			"type": "Feature",
			"properties": {
				"gml_id": "layer_town_pt.44378",
				"Name": "热瓦乡",
				"pyname": "rwx",
				"mapid": "473346",
				"kind": "BB84",
				"display_x": "93.81961",
				"display_y": "31.7192"
			},
			"geometry": {
				"type": "Point",
				"coordinates": [
					93.8183778,
					31.72158288
				]
			}
		},
		{
			"type": "Feature",
			"properties": {
				"gml_id": "layer_town_pt.44379",
				"Name": "龙仁乡",
				"pyname": "lrx",
				"mapid": "453162",
				"kind": "BB84",
				"display_x": "91.29062",
				"display_y": "30.52483"
			},
			"geometry": {
				"type": "Point",
				"coordinates": [
					91.28915694,
					30.52756305
				]
			}
		},
		{
			"type": "Feature",
			"properties": {
				"gml_id": "layer_town_pt.44380",
				"Name": "荣布镇",
				"pyname": "rbz",
				"mapid": "473425",
				"kind": "BB84",
				"display_x": "94.65111",
				"display_y": "31.55463"
			},
			"geometry": {
				"type": "Point",
				"coordinates": [
					94.6502433,
					31.55705816
				]
			}
		},
		{
			"type": "Feature",
			"properties": {
				"gml_id": "layer_town_pt.44381",
				"Name": "隆嘎尔乡",
				"pyname": "lgex",
				"mapid": "462440",
				"kind": "BB84",
				"display_x": "83.99995",
				"display_y": "31.02559"
			},
			"geometry": {
				"type": "Point",
				"coordinates": [
					83.99746368,
					31.02821969
				]
			}
		},
		{
			"type": "Feature",
			"properties": {
				"gml_id": "layer_town_pt.44382",
				"Name": "沙益乡",
				"pyname": "syx",
				"mapid": "453707",
				"kind": "BB84",
				"display_x": "97.8991",
				"display_y": "30.02411"
			},
			"geometry": {
				"type": "Point",
				"coordinates": [
					97.89884352,
					30.02701676
				]
			}
		},
		{
			"type": "Feature",
			"properties": {
				"gml_id": "layer_town_pt.44383",
				"Name": "洞嘎镇",
				"pyname": "dgz",
				"mapid": "433341",
				"kind": "BB84",
				"display_x": "93.18982",
				"display_y": "29.0114"
			},
			"geometry": {
				"type": "Point",
				"coordinates": [
					93.18851226,
					29.01452526
				]
			}
		},
		{
			"type": "Feature",
			"properties": {
				"gml_id": "layer_town_pt.44384",
				"Name": "切热乡",
				"pyname": "qrx",
				"mapid": "442610",
				"kind": "BB84",
				"display_x": "86.03141",
				"display_y": "29.47848"
			},
			"geometry": {
				"type": "Point",
				"coordinates": [
					86.02913322,
					29.48136084
				]
			}
		},
		{
			"type": "Feature",
			"properties": {
				"gml_id": "layer_town_pt.44385",
				"Name": "下察隅镇",
				"pyname": "xcyz",
				"mapid": "423750",
				"kind": "BB84",
				"display_x": "97.01749",
				"display_y": "28.49974"
			},
			"geometry": {
				"type": "Point",
				"coordinates": [
					97.0170876,
					28.50318198
				]
			}
		},
		{
			"type": "Feature",
			"properties": {
				"gml_id": "layer_town_pt.44386",
				"Name": "中亦乡",
				"pyname": "zyx",
				"mapid": "463513",
				"kind": "BB84",
				"display_x": "95.46179",
				"display_y": "30.78048"
			},
			"geometry": {
				"type": "Point",
				"coordinates": [
					95.46062724,
					30.78297243
				]
			}
		},
		{
			"type": "Feature",
			"properties": {
				"gml_id": "layer_town_pt.44387",
				"Name": "日绒乡",
				"pyname": "rrx",
				"mapid": "423260",
				"kind": "BB84",
				"display_x": "92.08684",
				"display_y": "28.51469"
			},
			"geometry": {
				"type": "Point",
				"coordinates": [
					92.08553526,
					28.51801646
				]
			}
		},
		{
			"type": "Feature",
			"properties": {
				"gml_id": "layer_town_pt.44388",
				"Name": "康沙镇",
				"pyname": "ksz",
				"mapid": "463600",
				"kind": "BB84",
				"display_x": "96.11042",
				"display_y": "30.74872"
			},
			"geometry": {
				"type": "Point",
				"coordinates": [
					96.10960032,
					30.75114632
				]
			}
		},
		{
			"type": "Feature",
			"properties": {
				"gml_id": "layer_town_pt.44389",
				"Name": "雄美乡",
				"pyname": "xmx",
				"mapid": "422766",
				"kind": "BB84",
				"display_x": "87.86464",
				"display_y": "28.58168"
			},
			"geometry": {
				"type": "Point",
				"coordinates": [
					87.86234574,
					28.58539527
				]
			}
		},
		{
			"type": "Feature",
			"properties": {
				"gml_id": "layer_town_pt.44390",
				"Name": "甘登乡",
				"pyname": "gdx",
				"mapid": "443544",
				"kind": "BB84",
				"display_x": "95.30651",
				"display_y": "29.75637"
			},
			"geometry": {
				"type": "Point",
				"coordinates": [
					95.3054235,
					29.75910476
				]
			}
		},
		{
			"type": "Feature",
			"properties": {
				"gml_id": "layer_town_pt.44391",
				"Name": "松盘乡",
				"pyname": "spx",
				"mapid": "443172",
				"kind": "BB84",
				"display_x": "91.27023",
				"display_y": "29.97821"
			},
			"geometry": {
				"type": "Point",
				"coordinates": [
					91.2687975,
					29.9810079
				]
			}
		},
		{
			"type": "Feature",
			"properties": {
				"gml_id": "layer_town_pt.44392",
				"Name": "甘曲镇",
				"pyname": "gqz",
				"mapid": "443162",
				"kind": "BB84",
				"display_x": "91.25503",
				"display_y": "29.89693"
			},
			"geometry": {
				"type": "Point",
				"coordinates": [
					91.25360514,
					29.89973408
				]
			}
		},
		{
			"type": "Feature",
			"properties": {
				"gml_id": "layer_town_pt.44393",
				"Name": "塔荣镇",
				"pyname": "trz",
				"mapid": "443011",
				"kind": "BB84",
				"display_x": "90.15974",
				"display_y": "29.43327"
			},
			"geometry": {
				"type": "Point",
				"coordinates": [
					90.15788898,
					29.43608337
				]
			}
		},
		{
			"type": "Feature",
			"properties": {
				"gml_id": "layer_town_pt.44394",
				"Name": "佳琼镇",
				"pyname": "jqz",
				"mapid": "473004",
				"kind": "BB84",
				"display_x": "90.57031",
				"display_y": "31.65821"
			},
			"geometry": {
				"type": "Point",
				"coordinates": [
					90.56900502,
					31.66071768
				]
			}
		},
		{
			"type": "Feature",
			"properties": {
				"gml_id": "layer_town_pt.44395",
				"Name": "尼玛镇",
				"pyname": "nmz",
				"mapid": "472751",
				"kind": "BB84",
				"display_x": "87.23862",
				"display_y": "31.79413"
			},
			"geometry": {
				"type": "Point",
				"coordinates": [
					87.23603574,
					31.79651913
				]
			}
		},
		{
			"type": "Feature",
			"properties": {
				"gml_id": "layer_town_pt.44396",
				"Name": "协德乡",
				"pyname": "xdx",
				"mapid": "482815",
				"kind": "BB84",
				"display_x": "88.64803",
				"display_y": "32.14618"
			},
			"geometry": {
				"type": "Point",
				"coordinates": [
					88.64583336,
					32.14878975
				]
			}
		},
		{
			"type": "Feature",
			"properties": {
				"gml_id": "layer_town_pt.44397",
				"Name": "措勤镇",
				"pyname": "cqz",
				"mapid": "462541",
				"kind": "BB84",
				"display_x": "85.15629",
				"display_y": "31.01528"
			},
			"geometry": {
				"type": "Point",
				"coordinates": [
					85.15383912,
					31.01776587
				]
			}
		},
		{
			"type": "Feature",
			"properties": {
				"gml_id": "layer_town_pt.44398",
				"Name": "措折罗玛镇",
				"pyname": "czlmz",
				"mapid": "472767",
				"kind": "BB84",
				"display_x": "87.88698",
				"display_y": "31.9024"
			},
			"geometry": {
				"type": "Point",
				"coordinates": [
					87.88458996,
					31.90499744
				]
			}
		},
		{
			"type": "Feature",
			"properties": {
				"gml_id": "layer_town_pt.44399",
				"Name": "玛如乡",
				"pyname": "mrx",
				"mapid": "483336",
				"kind": "BB84",
				"display_x": "93.758",
				"display_y": "32.2979"
			},
			"geometry": {
				"type": "Point",
				"coordinates": [
					93.75665418,
					32.30033067
				]
			}
		},
		{
			"type": "Feature",
			"properties": {
				"gml_id": "layer_town_pt.44400",
				"Name": "江达乡",
				"pyname": "jdx",
				"mapid": "473413",
				"kind": "BB84",
				"display_x": "94.39733",
				"display_y": "31.48041"
			},
			"geometry": {
				"type": "Point",
				"coordinates": [
					94.3960563,
					31.4825306
				]
			}
		},
		{
			"type": "Feature",
			"properties": {
				"gml_id": "layer_town_pt.44401",
				"Name": "德兴乡",
				"pyname": "dxx",
				"mapid": "433572",
				"kind": "BB84",
				"display_x": "95.30438",
				"display_y": "29.32465"
			},
			"geometry": {
				"type": "Point",
				"coordinates": [
					95.30331048,
					29.32754967
				]
			}
		},
		{
			"type": "Feature",
			"properties": {
				"gml_id": "layer_town_pt.44402",
				"Name": "达居乡",
				"pyname": "djx",
				"mapid": "442725",
				"kind": "BB84",
				"display_x": "87.65105",
				"display_y": "29.53922"
			},
			"geometry": {
				"type": "Point",
				"coordinates": [
					87.6486249,
					29.54227118
				]
			}
		},
		{
			"type": "Feature",
			"properties": {
				"gml_id": "layer_town_pt.44403",
				"Name": "吉巴门巴民族乡",
				"pyname": "jbmbmzx",
				"mapid": "413176",
				"kind": "BB84",
				"display_x": "91.80151",
				"display_y": "27.91633"
			},
			"geometry": {
				"type": "Point",
				"coordinates": [
					91.80034074,
					27.91990728
				]
			}
		},
		{
			"type": "Feature",
			"properties": {
				"gml_id": "layer_town_pt.44404",
				"Name": "城关镇",
				"pyname": "cgz",
				"mapid": "473504",
				"kind": "BB84",
				"display_x": "95.59113",
				"display_y": "31.41489"
			},
			"geometry": {
				"type": "Point",
				"coordinates": [
					95.59034172,
					31.4173652
				]
			}
		},
		{
			"type": "Feature",
			"properties": {
				"gml_id": "layer_town_pt.44405",
				"Name": "邦达镇",
				"pyname": "bdz",
				"mapid": "453722",
				"kind": "BB84",
				"display_x": "97.29272",
				"display_y": "30.20752"
			},
			"geometry": {
				"type": "Point",
				"coordinates": [
					97.29219132,
					30.21021873
				]
			}
		},
		{
			"type": "Feature",
			"properties": {
				"gml_id": "layer_town_pt.44406",
				"Name": "旺达镇",
				"pyname": "wdz",
				"mapid": "443746",
				"kind": "BB84",
				"display_x": "97.79988",
				"display_y": "29.70222"
			},
			"geometry": {
				"type": "Point",
				"coordinates": [
					97.79945454,
					29.70501341
				]
			}
		},
		{
			"type": "Feature",
			"properties": {
				"gml_id": "layer_town_pt.44407",
				"Name": "孜托镇",
				"pyname": "ztz",
				"mapid": "463506",
				"kind": "BB84",
				"display_x": "95.82752",
				"display_y": "30.74123"
			},
			"geometry": {
				"type": "Point",
				"coordinates": [
					95.82679332,
					30.7439375
				]
			}
		},
		{
			"type": "Feature",
			"properties": {
				"gml_id": "layer_town_pt.44408",
				"Name": "岗托镇",
				"pyname": "gtz",
				"mapid": "473824",
				"kind": "BB84",
				"display_x": "98.55307",
				"display_y": "31.56275"
			},
			"geometry": {
				"type": "Point",
				"coordinates": [
					98.5527243,
					31.56512072
				]
			}
		},
		{
			"type": "Feature",
			"properties": {
				"gml_id": "layer_town_pt.44409",
				"Name": "甲桑卡乡",
				"pyname": "jskx",
				"mapid": "473652",
				"kind": "BB84",
				"display_x": "96.31754",
				"display_y": "31.81835"
			},
			"geometry": {
				"type": "Point",
				"coordinates": [
					96.31697454,
					31.82056817
				]
			}
		},
		{
			"type": "Feature",
			"properties": {
				"gml_id": "layer_town_pt.44410",
				"Name": "城关镇",
				"pyname": "cgz",
				"mapid": "463751",
				"kind": "BB84",
				"display_x": "97.18151",
				"display_y": "31.1382"
			},
			"geometry": {
				"type": "Point",
				"coordinates": [
					97.18094322,
					31.14050139
				]
			}
		},
		{
			"type": "Feature",
			"properties": {
				"gml_id": "layer_town_pt.44411",
				"Name": "郭庆乡",
				"pyname": "gqx",
				"mapid": "463606",
				"kind": "BB84",
				"display_x": "96.84219",
				"display_y": "30.73282"
			},
			"geometry": {
				"type": "Point",
				"coordinates": [
					96.84194904,
					30.73554239
				]
			}
		},
		{
			"type": "Feature",
			"properties": {
				"gml_id": "layer_town_pt.44412",
				"Name": "烟多镇",
				"pyname": "ydz",
				"mapid": "453774",
				"kind": "BB84",
				"display_x": "97.56526",
				"display_y": "30.65283"
			},
			"geometry": {
				"type": "Point",
				"coordinates": [
					97.56492012,
					30.6556227
				]
			}
		},
		{
			"type": "Feature",
			"properties": {
				"gml_id": "layer_town_pt.44413",
				"Name": "拉西镇",
				"pyname": "lxz",
				"mapid": "473470",
				"kind": "BB84",
				"display_x": "94.0423",
				"display_y": "31.92359"
			},
			"geometry": {
				"type": "Point",
				"coordinates": [
					94.0409478,
					31.92582483
				]
			}
		},
		{
			"type": "Feature",
			"properties": {
				"gml_id": "layer_town_pt.44414",
				"Name": "嘎托镇",
				"pyname": "gtz",
				"mapid": "443844",
				"kind": "BB84",
				"display_x": "98.59471",
				"display_y": "29.67902"
			},
			"geometry": {
				"type": "Point",
				"coordinates": [
					98.59443318,
					29.68194956
				]
			}
		},
		{
			"type": "Feature",
			"properties": {
				"gml_id": "layer_town_pt.44415",
				"Name": "那曲镇",
				"pyname": "nqz",
				"mapid": "473210",
				"kind": "BB84",
				"display_x": "92.07258",
				"display_y": "31.46877"
			},
			"geometry": {
				"type": "Point",
				"coordinates": [
					92.07122508,
					31.47093612
				]
			}
		},
		{
			"type": "Feature",
			"properties": {
				"gml_id": "layer_town_pt.44416",
				"Name": "拉妥乡",
				"pyname": "ltx",
				"mapid": "453843",
				"kind": "BB84",
				"display_x": "98.46963",
				"display_y": "30.40848"
			},
			"geometry": {
				"type": "Point",
				"coordinates": [
					98.46908406,
					30.41109689
				]
			}
		},
		{
			"type": "Feature",
			"properties": {
				"gml_id": "layer_town_pt.44417",
				"Name": "如美镇",
				"pyname": "rmz",
				"mapid": "443832",
				"kind": "BB84",
				"display_x": "98.35079",
				"display_y": "29.61678"
			},
			"geometry": {
				"type": "Point",
				"coordinates": [
					98.35023294,
					29.61940995
				]
			}
		},
		{
			"type": "Feature",
			"properties": {
				"gml_id": "layer_town_pt.44418",
				"Name": "益青乡",
				"pyname": "yqx",
				"mapid": "453760",
				"kind": "BB84",
				"display_x": "97.10344",
				"display_y": "30.5493"
			},
			"geometry": {
				"type": "Point",
				"coordinates": [
					97.1027847,
					30.55179362
				]
			}
		},
		{
			"type": "Feature",
			"properties": {
				"gml_id": "layer_town_pt.44419",
				"Name": "吉多乡",
				"pyname": "jdx",
				"mapid": "473642",
				"kind": "BB84",
				"display_x": "96.31641",
				"display_y": "31.69393"
			},
			"geometry": {
				"type": "Point",
				"coordinates": [
					96.31584882,
					31.69613237
				]
			}
		},
		{
			"type": "Feature",
			"properties": {
				"gml_id": "layer_town_pt.44420",
				"Name": "白马镇",
				"pyname": "bmz",
				"mapid": "453607",
				"kind": "BB84",
				"display_x": "96.92319",
				"display_y": "30.05523"
			},
			"geometry": {
				"type": "Point",
				"coordinates": [
					96.9229953,
					30.05813282
				]
			}
		},
		{
			"type": "Feature",
			"properties": {
				"gml_id": "layer_town_pt.44421",
				"Name": "马前乡",
				"pyname": "mqx",
				"mapid": "473051",
				"kind": "BB84",
				"display_x": "90.13734",
				"display_y": "31.77401"
			},
			"geometry": {
				"type": "Point",
				"coordinates": [
					90.1353726,
					31.77622773
				]
			}
		},
		{
			"type": "Feature",
			"properties": {
				"gml_id": "layer_town_pt.44422",
				"Name": "南木林镇",
				"pyname": "nmlz",
				"mapid": "442940",
				"kind": "BB84",
				"display_x": "89.10119",
				"display_y": "29.68498"
			},
			"geometry": {
				"type": "Point",
				"coordinates": [
					89.09866422,
					29.68765821
				]
			}
		},
		{
			"type": "Feature",
			"properties": {
				"gml_id": "layer_town_pt.44423",
				"Name": "比如镇",
				"pyname": "brz",
				"mapid": "473315",
				"kind": "BB84",
				"display_x": "93.68086",
				"display_y": "31.47978"
			},
			"geometry": {
				"type": "Point",
				"coordinates": [
					93.6795996,
					31.48217316
				]
			}
		},
		{
			"type": "Feature",
			"properties": {
				"gml_id": "layer_town_pt.44424",
				"Name": "达塘乡",
				"pyname": "dtx",
				"mapid": "473320",
				"kind": "BB84",
				"display_x": "93.11353",
				"display_y": "31.53296"
			},
			"geometry": {
				"type": "Point",
				"coordinates": [
					93.11205564,
					31.53508812
				]
			}
		},
		{
			"type": "Feature",
			"properties": {
				"gml_id": "layer_town_pt.44425",
				"Name": "阿扎镇",
				"pyname": "azz",
				"mapid": "453371",
				"kind": "BB84",
				"display_x": "93.24216",
				"display_y": "30.63924"
			},
			"geometry": {
				"type": "Point",
				"coordinates": [
					93.24084366,
					30.64192029
				]
			}
		},
		{
			"type": "Feature",
			"properties": {
				"gml_id": "layer_town_pt.44426",
				"Name": "青龙乡",
				"pyname": "qlx",
				"mapid": "463055",
				"kind": "BB84",
				"display_x": "90.66552",
				"display_y": "31.15991"
			},
			"geometry": {
				"type": "Point",
				"coordinates": [
					90.66419172,
					31.16247543
				]
			}
		},
		{
			"type": "Feature",
			"properties": {
				"gml_id": "layer_town_pt.44427",
				"Name": "帕那镇",
				"pyname": "pnz",
				"mapid": "483135",
				"kind": "BB84",
				"display_x": "91.67714",
				"display_y": "32.26535"
			},
			"geometry": {
				"type": "Point",
				"coordinates": [
					91.67586948,
					32.26788972
				]
			}
		},
		{
			"type": "Feature",
			"properties": {
				"gml_id": "layer_town_pt.44428",
				"Name": "古米乡",
				"pyname": "gmx",
				"mapid": "433850",
				"kind": "BB84",
				"display_x": "98.09332",
				"display_y": "29.06922"
			},
			"geometry": {
				"type": "Point",
				"coordinates": [
					98.09271702,
					29.07212661
				]
			}
		},
		{
			"type": "Feature",
			"properties": {
				"gml_id": "layer_town_pt.44429",
				"Name": "曲松乡",
				"pyname": "qsx",
				"mapid": "481921",
				"kind": "BB84",
				"display_x": "79.18303",
				"display_y": "32.19941"
			},
			"geometry": {
				"type": "Point",
				"coordinates": [
					79.1808336,
					32.2019685
				]
			}
		},
		{
			"type": "Feature",
			"properties": {
				"gml_id": "layer_town_pt.44430",
				"Name": "色乡",
				"pyname": "sx",
				"mapid": "423026",
				"kind": "BB84",
				"display_x": "90.82352",
				"display_y": "28.1815"
			},
			"geometry": {
				"type": "Point",
				"coordinates": [
					90.82225728,
					28.18516545
				]
			}
		},
		{
			"type": "Feature",
			"properties": {
				"gml_id": "layer_town_pt.44431",
				"Name": "甲玛乡",
				"pyname": "jmx",
				"mapid": "443155",
				"kind": "BB84",
				"display_x": "91.66825",
				"display_y": "29.75398"
			},
			"geometry": {
				"type": "Point",
				"coordinates": [
					91.66703958,
					29.75689962
				]
			}
		},
		{
			"type": "Feature",
			"properties": {
				"gml_id": "layer_town_pt.44432",
				"Name": "兰普乡",
				"pyname": "lpx",
				"mapid": "413260",
				"kind": "BB84",
				"display_x": "92.0055",
				"display_y": "27.88114"
			},
			"geometry": {
				"type": "Point",
				"coordinates": [
					92.00437218,
					27.88465064
				]
			}
		},
		{
			"type": "Feature",
			"properties": {
				"gml_id": "layer_town_pt.44433",
				"Name": "甲谷乡",
				"pyname": "jgx",
				"mapid": "462637",
				"kind": "BB84",
				"display_x": "86.91321",
				"display_y": "30.96423"
			},
			"geometry": {
				"type": "Point",
				"coordinates": [
					86.9110803,
					30.9670263
				]
			}
		},
		{
			"type": "Feature",
			"properties": {
				"gml_id": "layer_town_pt.44434",
				"Name": "达雄乡",
				"pyname": "dxx",
				"mapid": "472500",
				"kind": "BB84",
				"display_x": "85.07032",
				"display_y": "31.34639"
			},
			"geometry": {
				"type": "Point",
				"coordinates": [
					85.06784502,
					31.34869209
				]
			}
		},
		{
			"type": "Feature",
			"properties": {
				"gml_id": "layer_town_pt.44435",
				"Name": "增期乡",
				"pyname": "zqx",
				"mapid": "443212",
				"kind": "BB84",
				"display_x": "92.36138",
				"display_y": "29.44107"
			},
			"geometry": {
				"type": "Point",
				"coordinates": [
					92.36019474,
					29.44382
				]
			}
		},
		{
			"type": "Feature",
			"properties": {
				"gml_id": "layer_town_pt.44436",
				"Name": "曲玛乡",
				"pyname": "qmx",
				"mapid": "432775",
				"kind": "BB84",
				"display_x": "87.7376",
				"display_y": "29.27282"
			},
			"geometry": {
				"type": "Point",
				"coordinates": [
					87.73504416,
					29.27587595
				]
			}
		},
		{
			"type": "Feature",
			"properties": {
				"gml_id": "layer_town_pt.44437",
				"Name": "洛林乡",
				"pyname": "llx",
				"mapid": "433234",
				"kind": "BB84",
				"display_x": "92.53916",
				"display_y": "28.9889"
			},
			"geometry": {
				"type": "Point",
				"coordinates": [
					92.5382889,
					28.99221791
				]
			}
		},
		{
			"type": "Feature",
			"properties": {
				"gml_id": "layer_town_pt.44438",
				"Name": "金岭乡",
				"pyname": "jlx",
				"mapid": "463424",
				"kind": "BB84",
				"display_x": "94.36225",
				"display_y": "30.72422"
			},
			"geometry": {
				"type": "Point",
				"coordinates": [
					94.36102002,
					30.72671609
				]
			}
		},
		{
			"type": "Feature",
			"properties": {
				"gml_id": "layer_town_pt.44439",
				"Name": "龙中乡",
				"pyname": "lzx",
				"mapid": "422844",
				"kind": "BB84",
				"display_x": "88.58962",
				"display_y": "28.33482"
			},
			"geometry": {
				"type": "Point",
				"coordinates": [
					88.5875769,
					28.33859786
				]
			}
		},
		{
			"type": "Feature",
			"properties": {
				"gml_id": "layer_town_pt.44440",
				"Name": "那么切乡",
				"pyname": "nmqx",
				"mapid": "473123",
				"kind": "BB84",
				"display_x": "91.41782",
				"display_y": "31.52873"
			},
			"geometry": {
				"type": "Point",
				"coordinates": [
					91.41617124,
					31.53088575
				]
			}
		},
		{
			"type": "Feature",
			"properties": {
				"gml_id": "layer_town_pt.44441",
				"Name": "卓瓦乡",
				"pyname": "zwx",
				"mapid": "462735",
				"kind": "BB84",
				"display_x": "87.70773",
				"display_y": "30.91904"
			},
			"geometry": {
				"type": "Point",
				"coordinates": [
					87.70516038,
					30.92170608
				]
			}
		},
		{
			"type": "Feature",
			"properties": {
				"gml_id": "layer_town_pt.44442",
				"Name": "多白乡",
				"pyname": "dbx",
				"mapid": "432666",
				"kind": "BB84",
				"display_x": "86.80641",
				"display_y": "29.17741"
			},
			"geometry": {
				"type": "Point",
				"coordinates": [
					86.80423464,
					29.18059191
				]
			}
		},
		{
			"type": "Feature",
			"properties": {
				"gml_id": "layer_town_pt.44443",
				"Name": "美玉乡",
				"pyname": "myx",
				"mapid": "453713",
				"kind": "BB84",
				"display_x": "97.41802",
				"display_y": "30.15718"
			},
			"geometry": {
				"type": "Point",
				"coordinates": [
					97.41730626,
					30.15973503
				]
			}
		},
		{
			"type": "Feature",
			"properties": {
				"gml_id": "layer_town_pt.44444",
				"Name": "新吉乡",
				"pyname": "xjx",
				"mapid": "452976",
				"kind": "BB84",
				"display_x": "89.81717",
				"display_y": "30.58404"
			},
			"geometry": {
				"type": "Point",
				"coordinates": [
					89.8151913,
					30.58687305
				]
			}
		},
		{
			"type": "Feature",
			"properties": {
				"gml_id": "layer_town_pt.44445",
				"Name": "边巴乡",
				"pyname": "bbx",
				"mapid": "423122",
				"kind": "BB84",
				"display_x": "91.27419",
				"display_y": "28.18483"
			},
			"geometry": {
				"type": "Point",
				"coordinates": [
					91.27281186,
					28.18839398
				]
			}
		},
		{
			"type": "Feature",
			"properties": {
				"gml_id": "layer_town_pt.44446",
				"Name": "帕玛乡",
				"pyname": "pmx",
				"mapid": "462471",
				"kind": "BB84",
				"display_x": "84.21277",
				"display_y": "31.29703"
			},
			"geometry": {
				"type": "Point",
				"coordinates": [
					84.21038136,
					31.29949368
				]
			}
		},
		{
			"type": "Feature",
			"properties": {
				"gml_id": "layer_town_pt.44447",
				"Name": "普松乡",
				"pyname": "psx",
				"mapid": "433061",
				"kind": "BB84",
				"display_x": "90.14268",
				"display_y": "29.22154"
			},
			"geometry": {
				"type": "Point",
				"coordinates": [
					90.14079222,
					29.22445863
				]
			}
		},
		{
			"type": "Feature",
			"properties": {
				"gml_id": "layer_town_pt.44448",
				"Name": "倾多镇",
				"pyname": "qdz",
				"mapid": "453504",
				"kind": "BB84",
				"display_x": "95.56021",
				"display_y": "30.07527"
			},
			"geometry": {
				"type": "Point",
				"coordinates": [
					95.55940908,
					30.07818797
				]
			}
		},
		{
			"type": "Feature",
			"properties": {
				"gml_id": "layer_town_pt.44449",
				"Name": "更章门巴民族乡",
				"pyname": "gzmbmzx",
				"mapid": "443440",
				"kind": "BB84",
				"display_x": "94.08681",
				"display_y": "29.72985"
			},
			"geometry": {
				"type": "Point",
				"coordinates": [
					94.08546432,
					29.73247268
				]
			}
		},
		{
			"type": "Feature",
			"properties": {
				"gml_id": "layer_town_pt.44450",
				"Name": "朗镇",
				"pyname": "lz",
				"mapid": "433247",
				"kind": "BB84",
				"display_x": "92.97631",
				"display_y": "29.04851"
			},
			"geometry": {
				"type": "Point",
				"coordinates": [
					92.97524934,
					29.05173774
				]
			}
		},
		{
			"type": "Feature",
			"properties": {
				"gml_id": "layer_town_pt.44451",
				"Name": "林芝镇",
				"pyname": "lzz",
				"mapid": "443423",
				"kind": "BB84",
				"display_x": "94.48402",
				"display_y": "29.57487"
			},
			"geometry": {
				"type": "Point",
				"coordinates": [
					94.4829855,
					29.57766471
				]
			}
		},
		{
			"type": "Feature",
			"properties": {
				"gml_id": "layer_town_pt.44452",
				"Name": "百巴镇",
				"pyname": "bbz",
				"mapid": "443356",
				"kind": "BB84",
				"display_x": "93.85006",
				"display_y": "29.795"
			},
			"geometry": {
				"type": "Point",
				"coordinates": [
					93.84894936,
					29.79791996
				]
			}
		},
		{
			"type": "Feature",
			"properties": {
				"gml_id": "layer_town_pt.44453",
				"Name": "卡贡乡",
				"pyname": "kgx",
				"mapid": "473811",
				"kind": "BB84",
				"display_x": "98.13726",
				"display_y": "31.43331"
			},
			"geometry": {
				"type": "Point",
				"coordinates": [
					98.136639,
					31.4354138
				]
			}
		},
		{
			"type": "Feature",
			"properties": {
				"gml_id": "layer_town_pt.44454",
				"Name": "马秀乡",
				"pyname": "mxx",
				"mapid": "463435",
				"kind": "BB84",
				"display_x": "94.66269",
				"display_y": "30.99663"
			},
			"geometry": {
				"type": "Point",
				"coordinates": [
					94.66180632,
					30.99923699
				]
			}
		},
		{
			"type": "Feature",
			"properties": {
				"gml_id": "layer_town_pt.44455",
				"Name": "江达镇",
				"pyname": "jdz",
				"mapid": "473811",
				"kind": "BB84",
				"display_x": "98.21068",
				"display_y": "31.49423"
			},
			"geometry": {
				"type": "Point",
				"coordinates": [
					98.2101951,
					31.49643479
				]
			}
		},
		{
			"type": "Feature",
			"properties": {
				"gml_id": "layer_town_pt.44456",
				"Name": "拉多乡",
				"pyname": "ldx",
				"mapid": "433340",
				"kind": "BB84",
				"display_x": "93.08585",
				"display_y": "29.00676"
			},
			"geometry": {
				"type": "Point",
				"coordinates": [
					93.0844566,
					29.0097738
				]
			}
		},
		{
			"type": "Feature",
			"properties": {
				"gml_id": "layer_town_pt.44457",
				"Name": "米林镇",
				"pyname": "mlz",
				"mapid": "433461",
				"kind": "BB84",
				"display_x": "94.21629",
				"display_y": "29.21658"
			},
			"geometry": {
				"type": "Point",
				"coordinates": [
					94.21520652,
					29.21959494
				]
			}
		},
		{
			"type": "Feature",
			"properties": {
				"gml_id": "layer_town_pt.44458",
				"Name": "桑多镇",
				"pyname": "sdz",
				"mapid": "463664",
				"kind": "BB84",
				"display_x": "96.60054",
				"display_y": "31.21038"
			},
			"geometry": {
				"type": "Point",
				"coordinates": [
					96.60038022,
					31.21291706
				]
			}
		},
		{
			"type": "Feature",
			"properties": {
				"gml_id": "layer_town_pt.44459",
				"Name": "错高乡",
				"pyname": "cgx",
				"mapid": "443377",
				"kind": "BB84",
				"display_x": "93.88113",
				"display_y": "29.98772"
			},
			"geometry": {
				"type": "Point",
				"coordinates": [
					93.88007442,
					29.99067404
				]
			}
		},
		{
			"type": "Feature",
			"properties": {
				"gml_id": "layer_town_pt.44460",
				"Name": "门布乡",
				"pyname": "mbx",
				"mapid": "432601",
				"kind": "BB84",
				"display_x": "86.1603",
				"display_y": "28.74882"
			},
			"geometry": {
				"type": "Point",
				"coordinates": [
					86.1580611,
					28.75218332
				]
			}
		},
		{
			"type": "Feature",
			"properties": {
				"gml_id": "layer_town_pt.44461",
				"Name": "香茂乡",
				"pyname": "xmx",
				"mapid": "463145",
				"kind": "BB84",
				"display_x": "91.67905",
				"display_y": "31.02031"
			},
			"geometry": {
				"type": "Point",
				"coordinates": [
					91.6777962,
					31.02291243
				]
			}
		},
		{
			"type": "Feature",
			"properties": {
				"gml_id": "layer_town_pt.44462",
				"Name": "美巴切勤乡",
				"pyname": "mbqqx",
				"mapid": "452724",
				"kind": "BB84",
				"display_x": "87.5848",
				"display_y": "30.17749"
			},
			"geometry": {
				"type": "Point",
				"coordinates": [
					87.58240416,
					30.18052935
				]
			}
		},
		{
			"type": "Feature",
			"properties": {
				"gml_id": "layer_town_pt.44463",
				"Name": "沙贡乡",
				"pyname": "sgx",
				"mapid": "473606",
				"kind": "BB84",
				"display_x": "96.87322",
				"display_y": "31.3937"
			},
			"geometry": {
				"type": "Point",
				"coordinates": [
					96.87301938,
					31.39614747
				]
			}
		},
		{
			"type": "Feature",
			"properties": {
				"gml_id": "layer_town_pt.44464",
				"Name": "吞巴乡",
				"pyname": "tbx",
				"mapid": "443002",
				"kind": "BB84",
				"display_x": "90.28693",
				"display_y": "29.33595"
			},
			"geometry": {
				"type": "Point",
				"coordinates": [
					90.28529639999999,
					29.33891046
				]
			}
		},
		{
			"type": "Feature",
			"properties": {
				"gml_id": "layer_town_pt.44465",
				"Name": "布久乡",
				"pyname": "bjx",
				"mapid": "443413",
				"kind": "BB84",
				"display_x": "94.415",
				"display_y": "29.46833"
			},
			"geometry": {
				"type": "Point",
				"coordinates": [
					94.4138016,
					29.47103496
				]
			}
		},
		{
			"type": "Feature",
			"properties": {
				"gml_id": "layer_town_pt.44466",
				"Name": "东拉乡",
				"pyname": "dlx",
				"mapid": "433046",
				"kind": "BB84",
				"display_x": "90.87047",
				"display_y": "29.01207"
			},
			"geometry": {
				"type": "Point",
				"coordinates": [
					90.8692749,
					29.01544704
				]
			}
		},
		{
			"type": "Feature",
			"properties": {
				"gml_id": "layer_town_pt.44467",
				"Name": "孔玛乡",
				"pyname": "kmx",
				"mapid": "422855",
				"kind": "BB84",
				"display_x": "88.63312",
				"display_y": "28.47126"
			},
			"geometry": {
				"type": "Point",
				"coordinates": [
					88.63105554,
					28.47499169
				]
			}
		},
		{
			"type": "Feature",
			"properties": {
				"gml_id": "layer_town_pt.44468",
				"Name": "达孜乡",
				"pyname": "dzx",
				"mapid": "432943",
				"kind": "BB84",
				"display_x": "89.4385",
				"display_y": "29.06747"
			},
			"geometry": {
				"type": "Point",
				"coordinates": [
					89.43607008,
					29.07050229
				]
			}
		},
		{
			"type": "Feature",
			"properties": {
				"gml_id": "layer_town_pt.44469",
				"Name": "联乡",
				"pyname": "lx",
				"mapid": "432974",
				"kind": "BB84",
				"display_x": "89.55576",
				"display_y": "29.30162"
			},
			"geometry": {
				"type": "Point",
				"coordinates": [
					89.55371196,
					29.30477738
				]
			}
		},
		{
			"type": "Feature",
			"properties": {
				"gml_id": "layer_town_pt.44470",
				"Name": "偏吉乡",
				"pyname": "pjx",
				"mapid": "432657",
				"kind": "BB84",
				"display_x": "86.97482",
				"display_y": "29.08732"
			},
			"geometry": {
				"type": "Point",
				"coordinates": [
					86.97257874,
					29.09059533
				]
			}
		},
		{
			"type": "Feature",
			"properties": {
				"gml_id": "layer_town_pt.44471",
				"Name": "昌果乡",
				"pyname": "cgx",
				"mapid": "432473",
				"kind": "BB84",
				"display_x": "84.43697",
				"display_y": "29.29489"
			},
			"geometry": {
				"type": "Point",
				"coordinates": [
					84.43459134,
					29.29781714
				]
			}
		},
		{
			"type": "Feature",
			"properties": {
				"gml_id": "layer_town_pt.44472",
				"Name": "穷果乡",
				"pyname": "qgx",
				"mapid": "442461",
				"kind": "BB84",
				"display_x": "84.21395",
				"display_y": "29.8741"
			},
			"geometry": {
				"type": "Point",
				"coordinates": [
					84.21160104,
					29.87698068
				]
			}
		},
		{
			"type": "Feature",
			"properties": {
				"gml_id": "layer_town_pt.44473",
				"Name": "下嘎乡",
				"pyname": "xgx",
				"mapid": "432833",
				"kind": "BB84",
				"display_x": "88.39443",
				"display_y": "28.98722"
			},
			"geometry": {
				"type": "Point",
				"coordinates": [
					88.39192266,
					28.99030068
				]
			}
		},
		{
			"type": "Feature",
			"properties": {
				"gml_id": "layer_town_pt.44474",
				"Name": "郭加乡",
				"pyname": "gjx",
				"mapid": "422744",
				"kind": "BB84",
				"display_x": "87.59427",
				"display_y": "28.36536"
			},
			"geometry": {
				"type": "Point",
				"coordinates": [
					87.59196558,
					28.3691777
				]
			}
		},
		{
			"type": "Feature",
			"properties": {
				"gml_id": "layer_town_pt.44475",
				"Name": "雅曲乡",
				"pyname": "yqx",
				"mapid": "473072",
				"kind": "BB84",
				"display_x": "90.0497",
				"display_y": "32.55373"
			},
			"geometry": {
				"type": "Point",
				"coordinates": [
					90.04765734,
					32.55605937
				]
			}
		},
		{
			"type": "Feature",
			"properties": {
				"gml_id": "layer_town_pt.44476",
				"Name": "门当乡",
				"pyname": "mdx",
				"mapid": "472906",
				"kind": "BB84",
				"display_x": "89.75085",
				"display_y": "31.4152"
			},
			"geometry": {
				"type": "Point",
				"coordinates": [
					89.7487542,
					31.41761229
				]
			}
		},
		{
			"type": "Feature",
			"properties": {
				"gml_id": "layer_town_pt.44477",
				"Name": "色昌乡",
				"pyname": "scx",
				"mapid": "473415",
				"kind": "BB84",
				"display_x": "94.66759",
				"display_y": "31.48561"
			},
			"geometry": {
				"type": "Point",
				"coordinates": [
					94.66668954,
					31.48801457
				]
			}
		},
		{
			"type": "Feature",
			"properties": {
				"gml_id": "layer_town_pt.44478",
				"Name": "则许乡",
				"pyname": "zxx",
				"mapid": "442857",
				"kind": "BB84",
				"display_x": "88.90039",
				"display_y": "29.8208"
			},
			"geometry": {
				"type": "Point",
				"coordinates": [
					88.89829596,
					29.82382637
				]
			}
		},
		{
			"type": "Feature",
			"properties": {
				"gml_id": "layer_town_pt.44479",
				"Name": "桑耶镇",
				"pyname": "syz",
				"mapid": "433174",
				"kind": "BB84",
				"display_x": "91.50932",
				"display_y": "29.32311"
			},
			"geometry": {
				"type": "Point",
				"coordinates": [
					91.50797646,
					29.32611156
				]
			}
		},
		{
			"type": "Feature",
			"properties": {
				"gml_id": "layer_town_pt.44480",
				"Name": "康如乡",
				"pyname": "krx",
				"mapid": "422973",
				"kind": "BB84",
				"display_x": "89.49096",
				"display_y": "28.61872"
			},
			"geometry": {
				"type": "Point",
				"coordinates": [
					89.48873394,
					28.62221526
				]
			}
		},
		{
			"type": "Feature",
			"properties": {
				"gml_id": "layer_town_pt.44481",
				"Name": "雄章乡",
				"pyname": "xzx",
				"mapid": "422972",
				"kind": "BB84",
				"display_x": "89.36459",
				"display_y": "28.61405"
			},
			"geometry": {
				"type": "Point",
				"coordinates": [
					89.3621781,
					28.61742582
				]
			}
		},
		{
			"type": "Feature",
			"properties": {
				"gml_id": "layer_town_pt.44482",
				"Name": "霍尔巴乡",
				"pyname": "hebx",
				"mapid": "452312",
				"kind": "BB84",
				"display_x": "83.3276",
				"display_y": "30.12859"
			},
			"geometry": {
				"type": "Point",
				"coordinates": [
					83.32475508,
					30.1314209
				]
			}
		},
		{
			"type": "Feature",
			"properties": {
				"gml_id": "layer_town_pt.44483",
				"Name": "堆纳乡",
				"pyname": "dnx",
				"mapid": "412971",
				"kind": "BB84",
				"display_x": "89.23455",
				"display_y": "27.97567"
			},
			"geometry": {
				"type": "Point",
				"coordinates": [
					89.23231368,
					27.97926188
				]
			}
		},
		{
			"type": "Feature",
			"properties": {
				"gml_id": "layer_town_pt.44484",
				"Name": "龙马乡",
				"pyname": "lmx",
				"mapid": "432927",
				"kind": "BB84",
				"display_x": "89.94091",
				"display_y": "28.85518"
			},
			"geometry": {
				"type": "Point",
				"coordinates": [
					89.93920086,
					28.85869476
				]
			}
		},
		{
			"type": "Feature",
			"properties": {
				"gml_id": "layer_town_pt.44485",
				"Name": "塔丁乡",
				"pyname": "tdx",
				"mapid": "442802",
				"kind": "BB84",
				"display_x": "88.29452",
				"display_y": "29.42124"
			},
			"geometry": {
				"type": "Point",
				"coordinates": [
					88.29213696,
					29.42416814
				]
			}
		},
		{
			"type": "Feature",
			"properties": {
				"gml_id": "layer_town_pt.44486",
				"Name": "白堆乡",
				"pyname": "bdx",
				"mapid": "433271",
				"kind": "BB84",
				"display_x": "92.19596",
				"display_y": "29.30757"
			},
			"geometry": {
				"type": "Point",
				"coordinates": [
					92.19484062,
					29.31049584
				]
			}
		},
		{
			"type": "Feature",
			"properties": {
				"gml_id": "layer_town_pt.44487",
				"Name": "良曲乡",
				"pyname": "lqx",
				"mapid": "473324",
				"kind": "BB84",
				"display_x": "93.51718",
				"display_y": "31.51184"
			},
			"geometry": {
				"type": "Point",
				"coordinates": [
					93.51585882,
					31.51419377
				]
			}
		},
		{
			"type": "Feature",
			"properties": {
				"gml_id": "layer_town_pt.44488",
				"Name": "加玉乡",
				"pyname": "jyx",
				"mapid": "423235",
				"kind": "BB84",
				"display_x": "92.75015",
				"display_y": "28.29105"
			},
			"geometry": {
				"type": "Point",
				"coordinates": [
					92.7491364,
					28.29461342
				]
			}
		},
		{
			"type": "Feature",
			"properties": {
				"gml_id": "layer_town_pt.44489",
				"Name": "觉马乡",
				"pyname": "jmx",
				"mapid": "433851",
				"kind": "BB84",
				"display_x": "98.22772",
				"display_y": "29.1085"
			},
			"geometry": {
				"type": "Point",
				"coordinates": [
					98.22732372,
					29.11154549
				]
			}
		},
		{
			"type": "Feature",
			"properties": {
				"gml_id": "layer_town_pt.44490",
				"Name": "强玛镇",
				"pyname": "qmz",
				"mapid": "473075",
				"kind": "BB84",
				"display_x": "90.84573",
				"display_y": "31.97373"
			},
			"geometry": {
				"type": "Point",
				"coordinates": [
					90.84442554,
					31.97625368
				]
			}
		},
		{
			"type": "Feature",
			"properties": {
				"gml_id": "layer_town_pt.44491",
				"Name": "伊日乡",
				"pyname": "yrx",
				"mapid": "473624",
				"kind": "BB84",
				"display_x": "96.57258",
				"display_y": "31.57948"
			},
			"geometry": {
				"type": "Point",
				"coordinates": [
					96.572394,
					31.58190945
				]
			}
		},
		{
			"type": "Feature",
			"properties": {
				"gml_id": "layer_town_pt.44492",
				"Name": "江达乡",
				"pyname": "jdx",
				"mapid": "443371",
				"kind": "BB84",
				"display_x": "93.14634",
				"display_y": "29.93675"
			},
			"geometry": {
				"type": "Point",
				"coordinates": [
					93.1449348,
					29.93939519
				]
			}
		},
		{
			"type": "Feature",
			"properties": {
				"gml_id": "layer_town_pt.44493",
				"Name": "王卡乡",
				"pyname": "wkx",
				"mapid": "463715",
				"kind": "BB84",
				"display_x": "97.65396",
				"display_y": "30.7982"
			},
			"geometry": {
				"type": "Point",
				"coordinates": [
					97.65358218,
					30.80088572
				]
			}
		},
		{
			"type": "Feature",
			"properties": {
				"gml_id": "layer_town_pt.44494",
				"Name": "木拉乡",
				"pyname": "mlx",
				"mapid": "432816",
				"kind": "BB84",
				"display_x": "88.82009",
				"display_y": "28.81222"
			},
			"geometry": {
				"type": "Point",
				"coordinates": [
					88.81791444,
					28.81568727
				]
			}
		},
		{
			"type": "Feature",
			"properties": {
				"gml_id": "layer_town_pt.44495",
				"Name": "加贡乡",
				"pyname": "jgx",
				"mapid": "453366",
				"kind": "BB84",
				"display_x": "93.95747",
				"display_y": "30.68922"
			},
			"geometry": {
				"type": "Point",
				"coordinates": [
					93.95637588,
					30.69201047
				]
			}
		},
		{
			"type": "Feature",
			"properties": {
				"gml_id": "layer_town_pt.44496",
				"Name": "卡嘎镇",
				"pyname": "kgz",
				"mapid": "442812",
				"kind": "BB84",
				"display_x": "88.26085",
				"display_y": "29.42747"
			},
			"geometry": {
				"type": "Point",
				"coordinates": [
					88.2584883,
					29.43042507
				]
			}
		},
		{
			"type": "Feature",
			"properties": {
				"gml_id": "layer_town_pt.44497",
				"Name": "荣周乡",
				"pyname": "rzx",
				"mapid": "453766",
				"kind": "BB84",
				"display_x": "97.79015",
				"display_y": "30.57101"
			},
			"geometry": {
				"type": "Point",
				"coordinates": [
					97.78969386,
					30.57370704
				]
			}
		},
		{
			"type": "Feature",
			"properties": {
				"gml_id": "layer_town_pt.44498",
				"Name": "德庆乡",
				"pyname": "dqx",
				"mapid": "443075",
				"kind": "BB84",
				"display_x": "90.71433",
				"display_y": "29.96432"
			},
			"geometry": {
				"type": "Point",
				"coordinates": [
					90.71294022,
					29.96716212
				]
			}
		},
		{
			"type": "Feature",
			"properties": {
				"gml_id": "layer_town_pt.44499",
				"Name": "察布乡",
				"pyname": "cbx",
				"mapid": "482430",
				"kind": "BB84",
				"display_x": "84.30364",
				"display_y": "33.29311"
			},
			"geometry": {
				"type": "Point",
				"coordinates": [
					84.30120756,
					33.29517168
				]
			}
		},
		{
			"type": "Feature",
			"properties": {
				"gml_id": "layer_town_pt.44500",
				"Name": "日土镇",
				"pyname": "rtz",
				"mapid": "501905",
				"kind": "BB84",
				"display_x": "79.65604",
				"display_y": "33.41858"
			},
			"geometry": {
				"type": "Point",
				"coordinates": [
					79.6540122,
					33.42083805
				]
			}
		},
		{
			"type": "Feature",
			"properties": {
				"gml_id": "layer_town_pt.44501",
				"Name": "泽当镇",
				"pyname": "zdz",
				"mapid": "433166",
				"kind": "BB84",
				"display_x": "91.77674",
				"display_y": "29.23905"
			},
			"geometry": {
				"type": "Point",
				"coordinates": [
					91.77549066,
					29.24209643
				]
			}
		},
		{
			"type": "Feature",
			"properties": {
				"gml_id": "layer_town_pt.44502",
				"Name": "雄巴乡",
				"pyname": "xbx",
				"mapid": "442730",
				"kind": "BB84",
				"display_x": "87.04355",
				"display_y": "29.6203"
			},
			"geometry": {
				"type": "Point",
				"coordinates": [
					87.0410295,
					29.62308096
				]
			}
		},
		{
			"type": "Feature",
			"properties": {
				"gml_id": "layer_town_pt.44503",
				"Name": "江热夏乡",
				"pyname": "jrxx",
				"mapid": "443162",
				"kind": "BB84",
				"display_x": "91.35892",
				"display_y": "29.85894"
			},
			"geometry": {
				"type": "Point",
				"coordinates": [
					91.35734238,
					29.86160531
				]
			}
		},
		{
			"type": "Feature",
			"properties": {
				"gml_id": "layer_town_pt.44504",
				"Name": "仁钦则乡",
				"pyname": "rqzx",
				"mapid": "442814",
				"kind": "BB84",
				"display_x": "88.51028",
				"display_y": "29.4804"
			},
			"geometry": {
				"type": "Point",
				"coordinates": [
					88.50801726,
					29.48335506
				]
			}
		},
		{
			"type": "Feature",
			"properties": {
				"gml_id": "layer_town_pt.44505",
				"Name": "重孜乡",
				"pyname": "zzx",
				"mapid": "432943",
				"kind": "BB84",
				"display_x": "89.4639",
				"display_y": "29.0191"
			},
			"geometry": {
				"type": "Point",
				"coordinates": [
					89.46154242,
					29.02222508
				]
			}
		},
		{
			"type": "Feature",
			"properties": {
				"gml_id": "layer_town_pt.44506",
				"Name": "生达乡",
				"pyname": "sdx",
				"mapid": "473772",
				"kind": "BB84",
				"display_x": "97.56765",
				"display_y": "32.00173"
			},
			"geometry": {
				"type": "Point",
				"coordinates": [
					97.56728874,
					32.00420214
				]
			}
		},
		{
			"type": "Feature",
			"properties": {
				"gml_id": "layer_town_pt.44507",
				"Name": "巴日乡",
				"pyname": "brx",
				"mapid": "453757",
				"kind": "BB84",
				"display_x": "97.95962",
				"display_y": "30.2772"
			},
			"geometry": {
				"type": "Point",
				"coordinates": [
					97.95929616,
					30.2800361
				]
			}
		},
		{
			"type": "Feature",
			"properties": {
				"gml_id": "layer_town_pt.44508",
				"Name": "热龙乡",
				"pyname": "rlx",
				"mapid": "433010",
				"kind": "BB84",
				"display_x": "90.04711",
				"display_y": "28.82193"
			},
			"geometry": {
				"type": "Point",
				"coordinates": [
					90.04518648,
					28.82519091
				]
			}
		},
		{
			"type": "Feature",
			"properties": {
				"gml_id": "layer_town_pt.44509",
				"Name": "东喜乡",
				"pyname": "dxx",
				"mapid": "422970",
				"kind": "BB84",
				"display_x": "89.12111",
				"display_y": "28.64739"
			},
			"geometry": {
				"type": "Point",
				"coordinates": [
					89.11863864,
					28.65071678
				]
			}
		},
		{
			"type": "Feature",
			"properties": {
				"gml_id": "layer_town_pt.44510",
				"Name": "邱多江乡",
				"pyname": "qdjx",
				"mapid": "433220",
				"kind": "BB84",
				"display_x": "92.11501",
				"display_y": "28.85454"
			},
			"geometry": {
				"type": "Point",
				"coordinates": [
					92.1137166,
					28.85767664
				]
			}
		},
		{
			"type": "Feature",
			"properties": {
				"gml_id": "layer_town_pt.44511",
				"Name": "许木乡",
				"pyname": "xmx",
				"mapid": "453523",
				"kind": "BB84",
				"display_x": "95.38763",
				"display_y": "30.202"
			},
			"geometry": {
				"type": "Point",
				"coordinates": [
					95.38639308,
					30.20459112
				]
			}
		},
		{
			"type": "Feature",
			"properties": {
				"gml_id": "layer_town_pt.44512",
				"Name": "东嘎乡",
				"pyname": "dgx",
				"mapid": "442806",
				"kind": "BB84",
				"display_x": "88.83571",
				"display_y": "29.35504"
			},
			"geometry": {
				"type": "Point",
				"coordinates": [
					88.8335496,
					29.35813766
				]
			}
		},
		{
			"type": "Feature",
			"properties": {
				"gml_id": "layer_town_pt.44513",
				"Name": "卡孜乡",
				"pyname": "kzx",
				"mapid": "442920",
				"kind": "BB84",
				"display_x": "89.07653",
				"display_y": "29.56973"
			},
			"geometry": {
				"type": "Point",
				"coordinates": [
					89.07402654,
					29.57245272
				]
			}
		},
		{
			"type": "Feature",
			"properties": {
				"gml_id": "layer_town_pt.44514",
				"Name": "妥坝乡",
				"pyname": "tbx",
				"mapid": "463774",
				"kind": "BB84",
				"display_x": "97.52959",
				"display_y": "31.28126"
			},
			"geometry": {
				"type": "Point",
				"coordinates": [
					97.52914296,
					31.28364738
				]
			}
		},
		{
			"type": "Feature",
			"properties": {
				"gml_id": "layer_town_pt.44515",
				"Name": "卡达乡",
				"pyname": "kdx",
				"mapid": "423202",
				"kind": "BB84",
				"display_x": "92.36431",
				"display_y": "28.07758"
			},
			"geometry": {
				"type": "Point",
				"coordinates": [
					92.3631606,
					28.08098118
				]
			}
		},
		{
			"type": "Feature",
			"properties": {
				"gml_id": "layer_town_pt.44516",
				"Name": "东坝乡",
				"pyname": "dbx",
				"mapid": "443763",
				"kind": "BB84",
				"display_x": "97.42518",
				"display_y": "29.85547"
			},
			"geometry": {
				"type": "Point",
				"coordinates": [
					97.42447404,
					29.85802898
				]
			}
		},